"id","name","french_name","norm_name","norm_french_name","country_code","postal_code","zone1","zone2","lat","lng","note","url_unique"
"43049","Abejuela",,"abejuela",,"ES","04691","0","0","37.51116","-1.90991","0","-1"
"43050","Abla",,"abla",,"ES","04510","0","0","37.14114","-2.78010","0","-1"
"43051","Abla-Abrucena",,"abla-abrucena",,"ES","04533","0","0","37.25805","-2.27853","0","-1"
"43052","Abriojal",,"abriojal",,"ES","04260","0","0","36.95210","-2.46720","0","-1"
"43053","Abrucena",,"abrucena",,"ES","04520","0","0","37.13305","-2.79710","0","-1"
"43054","Adra",,"adra",,"ES","04770","0","0","36.74807","-3.02252","0","-1"
"43055","Aguadulce",,"aguadulce",,"ES","04720","0","0","36.81448","-2.57189","0","-1"
"43056","Aguamarga",,"aguamarga",,"ES","04149","0","0","37.35982","-2.30198","0","-1"
"43057","Alamos",,"alamos",,"ES","04811","0","0","37.54141","-2.33058","0","-1"
"43058","Alara",,"alara",,"ES","04830","0","0","37.67783","-2.06202","0","-1"
"43059","Albánchez",,"albanchez",,"ES","04857","0","0","37.28710","-2.18116","0","-1"
"43060","Albaricoques",,"albaricoques",,"ES","04116","0","0","36.84945","-2.12221","0","-1"
"43061","Albarracín",,"albarracin",,"ES","04279","0","0","36.86230","-2.44656","0","-1"
"43062","Albolodúy",,"alboloduy",,"ES","04531","0","0","37.03319","-2.62175","0","-1"
"43063","Albox",,"albox",,"ES","04692","0","0","37.48231","-2.05672","0","-1"
"43064","Alcaudique",,"alcaudique",,"ES","04769","0","0","36.83872","-2.93436","0","-1"
"43065","Alcolea",,"alcolea",,"ES","04480","0","0","36.97449","-2.96104","0","-1"
"43066","Alcoluches",,"alcoluches",,"ES","04830","0","0","37.60734","-2.19195","0","-1"
"43067","Alcóntar",,"alcontar",,"ES","04897","0","0","37.33585","-2.59694","0","-1"
"43068","Alcudia de Monteagud",,"alcudia-de-monteagud",,"ES","04276","0","0","37.23599","-2.26617","0","-1"
"43069","Aldeire",,"aldeire",,"ES","04897","0","0","37.30217","-2.57892","0","-1"
"43070","Alfaix",,"alfaix",,"ES","04288","0","0","37.14224","-1.96011","0","-1"
"43071","Algaida",,"algaida",,"ES","04742","0","0","36.77639","-2.62309","0","-1"
"43072","Alhabia",,"alhabia",,"ES","04567","0","0","36.98931","-2.58767","0","-1"
"43073","Alhama de Almería",,"alhama-de-almeria",,"ES","04400","0","0","36.95742","-2.57007","0","-1"
"43074","Alicún",,"alicun",,"ES","04409","0","0","36.96630","-2.60199","0","-1"
"43075","Aljarilla",,"aljarilla",,"ES","04618","0","0","37.24728","-1.87223","0","-1"
"43076","Aljariz",,"aljariz",,"ES","04629","0","0","37.25236","-1.93252","0","-1"
"43077","Almajalejo",,"almajalejo",,"ES","04650","0","0","37.38601","-1.99497","0","-1"
"43078","Almanzora",,"almanzora",,"ES","04815","0","0","37.35016","-2.13629","0","-1"
"43079","Almería",,"almeria",,"ES","04001","0","0","36.83792","-2.46474","0","-1"
"43080","Almerimar",,"almerimar",,"ES","04711","0","0","36.70090","-2.78924","0","-1"
"43081","Almocáizar",,"almocaizar",,"ES","04289","0","0","37.13582","-2.01093","0","-1"
"43082","Almócita",,"almocita",,"ES","04458","0","0","37.00236","-2.79007","0","-1"
"43083","Alparatas",,"alparatas",,"ES","04638","0","0","37.16366","-1.87255","0","-1"
"43084","Alsodux",,"alsodux",,"ES","04568","0","0","37.00200","-2.59458","0","-1"
"43085","Amarguilla",,"amarguilla",,"ES","04897","0","0","37.33352","-2.61318","0","-1"
"43086","Angosto de Abajo",,"angosto-de-abajo",,"ES","04897","0","0","37.33443","-2.58718","0","-1"
"43087","Angosto de Arriba",,"angosto-de-arriba",,"ES","04897","0","0","37.34001","-2.54875","0","-1"
"43088","Antas",,"antas",,"ES","04628","0","0","37.24516","-1.91754","0","-1"
"43089","Arboleas",,"arboleas",,"ES","04660","0","0","37.35025","-2.07487","0","-1"
"43090","Armuña de Almanzora",,"armuna-de-almanzora",,"ES","04888","0","0","37.34969","-2.41140","0","-1"
"43091","Arnilla",,"arnilla",,"ES","04619","0","0","37.31241","-1.82743","0","-1"
"43092","Arroyo de Verdelecho",,"arroyo-de-verdelecho",,"ES","04550","0","0","37.09089","-2.46084","0","-1"
"43093","Arroyo Medina",,"arroyo-medina",,"ES","04811","0","0","37.47308","-2.19719","0","-1"
"43094","Aspilla",,"aspilla",,"ES","04825","0","0","37.56701","-2.32751","0","-1"
"43095","Atochares",,"atochares",,"ES","04113","0","0","36.88067","-2.16045","0","-1"
"43096","Aulago",,"aulago",,"ES","04549","0","0","37.16014","-2.62686","0","-1"
"43097","Bacarés",,"bacares",,"ES","04889","0","0","37.26083","-2.45476","0","-1"
"43098","Balanegra",,"balanegra",,"ES","04713","0","0","36.75024","-2.90757","0","-1"
"43099","Balerma",,"balerma",,"ES","04712","0","0","36.73027","-2.88660","0","-1"
"43100","Bancalejo",,"bancalejo",,"ES","04828","0","0","37.54858","-2.12410","0","-1"
"43101","Barranco de los Lobos",,"barranco-de-los-lobos",,"ES","04279","0","0","37.08738","-2.17811","0","-1"
"43102","Barrio de Archilla",,"barrio-de-archilla",,"ES","04738","0","0","36.80988","-2.71149","0","-1"
"43103","Barrio Mortero",,"barrio-mortero",,"ES","04648","0","0","37.39861","-1.73723","0","-1"
"43104","Base Alvarez Sotomayor",,"base-alvarez-sotomayor",,"ES","04220","0","0","36.89780","-2.41000","0","-1"
"43105","Bayárcal",,"bayarcal",,"ES","04479","0","0","37.03116","-2.99647","0","-1"
"43106","Bayarque",,"bayarque",,"ES","04888","0","0","37.33091","-2.43566","0","-1"
"43107","Bédar",,"bedar",,"ES","04288","0","0","37.18964","-1.98190","0","-1"
"43108","Beires",,"beires",,"ES","04458","0","0","37.01200","-2.79093","0","-1"
"43109","Benahadux",,"benahadux",,"ES","04410","0","0","36.92586","-2.45568","0","-1"
"43110","Benecid",,"benecid",,"ES","04479","0","0","36.99020","-2.85916","0","-1"
"43111","Beneji",,"beneji",,"ES","04769","0","0","36.83446","-2.95410","0","-1"
"43112","Benimar",,"benimar",,"ES","04769","0","0","36.84730","-2.96993","0","-1"
"43113","Benitagla",,"benitagla",,"ES","04276","0","0","37.23124","-2.23911","0","-1"
"43114","Benitorafe",,"benitorafe",,"ES","04275","0","0","37.23904","-2.29025","0","-1"
"43115","Benizalón",,"benizalon",,"ES","04276","0","0","37.21175","-2.24168","0","-1"
"43116","Bentarique",,"bentarique",,"ES","04569","0","0","36.98652","-2.61942","0","-1"
"43117","Benzal",,"benzal",,"ES","04647","0","0","37.42177","-1.78138","0","-1"
"43118","Berja",,"berja",,"ES","04760","0","0","36.84644","-2.94943","0","-1"
"43119","Blanquez de Alcontar",,"blanquez-de-alcontar",,"ES","04897","0","0","37.27864","-2.63277","0","-1"
"43120","Boca de los Frailes",,"boca-de-los-frailes",,"ES","04117","0","0","36.80539","-2.13249","0","-1"
"43121","Breña",,"brena",,"ES","04217","0","0","37.24123","-2.12266","0","-1"
"43122","Burjulú",,"burjulu",,"ES","04618","0","0","37.27833","-1.81740","0","-1"
"43123","Cala Pañizo",,"cala-panizo",,"ES","04610","0","0","37.31895","-1.70173","0","-1"
"43124","Calabuche",,"calabuche",,"ES","04828","0","0","37.38177","-2.06141","0","-1"
"43125","Calguerin",,"calguerin",,"ES","04610","0","0","37.30648","-1.89383","0","-1"
"43126","Campamento",,"campamento",,"ES","04240","0","0","36.17327","-5.36915","0","-1"
"43127","Campico",,"campico",,"ES","04277","0","0","37.06558","-2.04288","0","-1"
"43128","Campillo",,"campillo",,"ES","04828","0","0","37.38177","-2.06141","0","-1"
"43129","Campohermoso",,"campohermoso",,"ES","04110","0","0","36.93589","-2.13144","0","-1"
"43130","Cañada Bastiana",,"canada-bastiana",,"ES","04738","0","0","36.80988","-2.71149","0","-1"
"43131","Canalica",,"canalica",,"ES","04829","0","0","37.58182","-2.04745","0","-1"
"43132","Canjáyar",,"canjayar",,"ES","04450","0","0","37.00973","-2.73968","0","-1"
"43133","Cantoria",,"cantoria",,"ES","04850","0","0","37.35259","-2.19363","0","-1"
"43134","Capairola",,"capairola",,"ES","04811","0","0","37.47745","-2.31020","0","-1"
"43135","Carboneras",,"carboneras",,"ES","04140","0","0","36.99659","-1.89501","0","-1"
"43136","Cariatiz",,"cariatiz",,"ES","04278","0","0","37.14615","-2.07563","0","-1"
"43137","Carrasco",,"carrasco",,"ES","04277","0","0","37.64736","-2.07387","0","-1"
"43138","Cartero",,"cartero",,"ES","04200","0","0","37.35502","-2.29589","0","-1"
"43139","Casablanca",,"casablanca",,"ES","04660","0","0","36.81242","-2.69593","0","-1"
"43140","Castala",,"castala",,"ES","04760","0","0","36.88771","-2.92575","0","-1"
"43141","Castro de Filabres",,"castro-de-filabres",,"ES","04212","0","0","37.18463","-2.43952","0","-1"
"43142","Cela",,"cela",,"ES","04887","0","0","37.37550","-2.44357","0","-1"
"43143","Celín",,"celin",,"ES","04750","0","0","36.83262","-2.86962","0","-1"
"43144","Chercos",,"chercos",,"ES","04859","0","0","37.26633","-2.25790","0","-1"
"43145","Chercos Nuevos",,"chercos-nuevos",,"ES","04859","0","0","37.35561","-2.20354","0","-1"
"43146","Chercos Viejos",,"chercos-viejos",,"ES","04859","0","0","37.35561","-2.20354","0","-1"
"43147","Chirán",,"chiran",,"ES","04769","0","0","36.89899","-2.93325","0","-1"
"43148","Chirivel",,"chirivel",,"ES","04825","0","0","37.59560","-2.26484","0","-1"
"43149","Cinta Blanca",,"cinta-blanca",,"ES","04270","0","0","37.35117","-2.07340","0","-1"
"43150","Cirera",,"cirera",,"ES","04610","0","0","37.29561","-1.88411","0","-1"
"43151","Cóbdar",,"cobdar",,"ES","04858","0","0","37.26199","-2.21022","0","-1"
"43152","Cocón del Peral",,"cocon-del-peral",,"ES","04275","0","0","37.14499","-2.30468","0","-1"
"43153","Cortijo Real",,"cortijo-real",,"ES","04532","0","0","37.22187","-2.49051","0","-1"
"43154","Cortijos de Marin",,"cortijos-de-marin",,"ES","04738","0","0","36.75758","-2.65405","0","-1"
"43155","Costacabana",,"costacabana",,"ES","04120","0","0","36.83801","-2.38612","0","-1"
"43156","Cuatro Higueras",,"cuatro-higueras",,"ES","04610","0","0","37.38062","-1.77395","0","-1"
"43157","Cuesta del Pino",,"cuesta-del-pino",,"ES","04869","0","0","36.83766","-2.46884","0","-1"
"43158","Cuevas de los Medinas",,"cuevas-de-los-medinas",,"ES","04160","0","0","36.89259","-2.28067","0","-1"
"43159","Cuevas de los Ubedas",,"cuevas-de-los-ubedas",,"ES","04130","0","0","36.92727","-2.29816","0","-1"
"43160","Cuevas del Almanzora",,"cuevas-del-almanzora",,"ES","04610","0","0","37.34693","-1.85134","0","-1"
"43161","Cuevas del Lino",,"cuevas-del-lino",,"ES","04117","0","0","36.84523","-2.20068","0","-1"
"43162","Daimuz",,"daimuz",,"ES","04811","0","0","37.49582","-2.24751","0","-1"
"43163","Dalí",,"dali",,"ES","04889","0","0","37.34802","-2.44557","0","-1"
"43164","Dalías",,"dalias",,"ES","04750","0","0","36.82121","-2.87070","0","-1"
"43165","Darrícal",,"darrical",,"ES","04768","0","0","36.91937","-3.02789","0","-1"
"43166","Derde",,"derde",,"ES","04830","0","0","37.79968","-2.16240","0","-1"
"43167","Domenes",,"domenes",,"ES","04897","0","0","37.32809","-2.61066","0","-1"
"43168","Doña Juana",,"dona-juana",,"ES","04813","0","0","37.53161","-2.22341","0","-1"
"43169","Doña Maria de Ocaña",,"dona-maria-de-ocana",,"ES","04530","0","0","37.13424","-2.71184","0","-1"
"43170","El Aceituno",,"el-aceituno",,"ES","04692","0","0","37.30787","-2.13829","0","-1"
"43171","El Agua del Medio",,"el-agua-del-medio",,"ES","04638","0","0","37.07136","-1.86347","0","-1"
"43172","El Albarico",,"el-albarico",,"ES","04288","0","0","37.10811","-2.16622","0","-1"
"43173","El Alhanchete",,"el-alhanchete",,"ES","04619","0","0","37.30985","-1.88330","0","-1"
"43174","El Almendral",,"el-almendral",,"ES","04559","0","0","37.15741","-2.53865","0","-1"
"43175","El Alquián",,"el-alquian",,"ES","04130","0","0","36.85280","-2.35521","0","-1"
"43176","El Argamason",,"el-argamason",,"ES","04149","0","0","36.99864","-1.97790","0","-1"
"43177","El Arroyo Aceituno",,"el-arroyo-aceituno",,"ES","04850","0","0","37.30787","-2.13829","0","-1"
"43178","El Arroyo Albanchez",,"el-arroyo-albanchez",,"ES","04858","0","0","37.32472","-2.14474","0","-1"
"43179","El Arroyo de Urracal",,"el-arroyo-de-urracal",,"ES","04811","0","0","37.38798","-2.30501","0","-1"
"43180","El Arroyo del Saliente",,"el-arroyo-del-saliente",,"ES","04813","0","0","37.48333","-2.15000","0","-1"
"43181","El Arroyo Franco y Estella",,"el-arroyo-franco-y-estella",,"ES","04867","0","0","37.25936","-2.34561","0","-1"
"43182","El Arteal",,"el-arteal",,"ES","04610","0","0","37.38062","-1.77395","0","-1"
"43183","El Barranco de Quiles",,"el-barranco-de-quiles",,"ES","04810","0","0","37.50743","-2.25726","0","-1"
"43184","El Barranco del Infierno",,"el-barranco-del-infierno",,"ES","04858","0","0","37.30509","-2.15392","0","-1"
"43185","El Barranquete",,"el-barranquete",,"ES","04117","0","0","36.83741","-2.19529","0","-1"
"43186","El Bobar",,"el-bobar",,"ES","04120","0","0","36.82786","-2.41523","0","-1"
"43187","El Cabo de Gata",,"el-cabo-de-gata",,"ES","04150","0","0","36.83514","-2.22778","0","-1"
"43188","El Calar Alto",,"el-calar-alto",,"ES","04550","0","0","37.22186","-2.54893","0","-1"
"43189","El Calón",,"el-calon",,"ES","04610","0","0","37.31202","-1.70526","0","-1"
"43190","El Camino Real",,"el-camino-real",,"ES","04510","0","0","37.15431","-2.78741","0","-1"
"43191","El Campico",,"el-campico",,"ES","04288","0","0","37.20070","-2.01426","0","-1"
"43192","El Campico de las Moletas",,"el-campico-de-las-moletas",,"ES","04271","0","0","37.16723","-2.03822","0","-1"
"43193","El Campillo",,"el-campillo",,"ES","04779","0","0","36.75701","-2.99335","0","-1"
"43194","El Campillo del Moro",,"el-campillo-del-moro",,"ES","04720","0","0","36.80841","-2.58757","0","-1"
"43195","El Cañal",,"el-canal",,"ES","04770","0","0","37.17753","-2.20553","0","-1"
"43196","El Cañarico",,"el-canarico",,"ES","04149","0","0","37.04031","-1.96420","0","-1"
"43197","El Cantal",,"el-cantal",,"ES","04825","0","0","37.55802","-2.21036","0","-1"
"43198","El Carmen",,"el-carmen",,"ES","04230","0","0","36.90411","-2.44682","0","-1"
"43199","El Cercado",,"el-cercado",,"ES","04859","0","0","37.68616","-2.05160","0","-1"
"43200","El Cerrogordo",,"el-cerrogordo",,"ES","04810","0","0","37.46134","-2.26551","0","-1"
"43201","El Charche",,"el-charche",,"ES","04829","0","0","37.63426","-2.03399","0","-1"
"43202","El Chive",,"el-chive",,"ES","04271","0","0","37.17726","-2.07344","0","-1"
"43203","El Chopo",,"el-chopo",,"ES","04660","0","0","37.28473","-2.14032","0","-1"
"43204","El Chuche",,"el-chuche",,"ES","04410","0","0","36.91226","-2.45080","0","-1"
"43205","El Cid",,"el-cid",,"ES","04760","0","0","36.88449","-2.97188","0","-1"
"43206","El Cocón",,"el-cocon",,"ES","04648","0","0","37.40197","-1.66735","0","-1"
"43207","El Congo",,"el-congo",,"ES","04738","0","0","36.76531","-2.75967","0","-1"
"43208","El Contador",,"el-contador",,"ES","04825","0","0","37.58971","-2.36280","0","-1"
"43209","El Convoy",,"el-convoy",,"ES","04647","0","0","37.39630","-1.76128","0","-1"
"43210","El Corral",,"el-corral",,"ES","04770","0","0","36.80008","-3.08068","0","-1"
"43211","El Cortijo Alto",,"el-cortijo-alto",,"ES","04550","0","0","37.07275","-2.54697","0","-1"
"43212","El Cortijo Grande",,"el-cortijo-grande",,"ES","04639","0","0","37.12321","-1.93464","0","-1"
"43213","El Cucador",,"el-cucador",,"ES","04661","0","0","37.35697","-2.02653","0","-1"
"43214","El Cumbrero",,"el-cumbrero",,"ES","04149","0","0","37.02051","-1.92404","0","-1"
"43215","El Ejido",,"el-ejido",,"ES","04700","0","0","36.72857","-2.75807","0","-1"
"43216","El Espadin",,"el-espadin",,"ES","04829","0","0","37.64510","-2.05167","0","-1"
"43217","El Fonte",,"el-fonte",,"ES","04271","0","0","37.16057","-2.12678","0","-1"
"43218","El Gor",,"el-gor",,"ES","04693","0","0","37.46854","-1.96346","0","-1"
"43219","El Haza del Riego",,"el-haza-del-riego",,"ES","04532","0","0","37.21995","-2.74344","0","-1"
"43220","El Hijate",,"el-hijate",,"ES","04898","0","0","37.39679","-2.59270","0","-1"
"43221","El Largo",,"el-largo",,"ES","04619","0","0","37.33606","-1.76739","0","-1"
"43222","El Llano de Don Antonio",,"el-llano-de-don-antonio",,"ES","04149","0","0","37.00059","-1.93481","0","-1"
"43223","El Llano de las Animas",,"el-llano-de-las-animas",,"ES","04812","0","0","37.43425","-2.17282","0","-1"
"43224","El Mamí",,"el-mami",,"ES","04120","0","0","36.85405","-2.42303","0","-1"
"43225","El Marchal",,"el-marchal",,"ES","04271","0","0","37.21378","-2.02581","0","-1"
"43226","El Margen",,"el-margen",,"ES","04811","0","0","37.52324","-2.23372","0","-1"
"43227","El Martinete",,"el-martinete",,"ES","04618","0","0","37.28764","-1.87853","0","-1"
"43228","El Mayordomo",,"el-mayordomo",,"ES","04279","0","0","37.12135","-2.12223","0","-1"
"43229","El Mojonar",,"el-mojonar",,"ES","04825","0","0","37.64777","-2.21708","0","-1"
"43230","El Molino",,"el-molino",,"ES","04640","0","0","37.42155","-1.73039","0","-1"
"43231","El Molino del Tarahal",,"el-molino-del-tarahal",,"ES","04610","0","0","37.38062","-1.77395","0","-1"
"43232","El Morro",,"el-morro",,"ES","04618","0","0","37.28960","-1.88250","0","-1"
"43233","El Olivar",,"el-olivar",,"ES","04869","0","0","37.34840","-2.01091","0","-1"
"43234","El Palacés",,"el-palaces",,"ES","04662","0","0","37.34840","-2.01091","0","-1"
"43235","El Palomar",,"el-palomar",,"ES","04869","0","0","37.37165","-2.27289","0","-1"
"43236","El Parador",,"el-parador",,"ES","04721","0","0","36.81165","-2.60141","0","-1"
"43237","El Parador de las Hortichuelas",,"el-parador-de-las-hortichuelas",,"ES","04720","0","0","36.80957","-2.60026","0","-1"
"43238","El Patio",,"el-patio",,"ES","04770","0","0","36.77100","-3.11936","0","-1"
"43239","El Peñon Alto",,"el-penon-alto",,"ES","04811","0","0","37.50547","-2.26333","0","-1"
"43240","El Peñon Bajo",,"el-penon-bajo",,"ES","04811","0","0","37.46525","-2.21235","0","-1"
"43241","El Piar de Abajo",,"el-piar-de-abajo",,"ES","04829","0","0","37.67150","-2.02215","0","-1"
"43242","El Pilar",,"el-pilar",,"ES","04270","0","0","37.18963","-2.10121","0","-1"
"43243","El Pilarico",,"el-pilarico",,"ES","04279","0","0","37.19861","-2.19175","0","-1"
"43244","El Pinar",,"el-pinar",,"ES","04288","0","0","37.43398","-2.47064","0","-1"
"43245","El Pocico",,"el-pocico",,"ES","04271","0","0","37.24021","-2.04105","0","-1"
"43246","El Prado",,"el-prado",,"ES","04660","0","0","37.37932","-2.31170","0","-1"
"43247","El Puente del Río",,"el-puente-del-rio",,"ES","04779","0","0","36.75800","-2.98708","0","-1"
"43248","El Puertecico",,"el-puertecico",,"ES","04693","0","0","37.51460","-1.98438","0","-1"
"43249","El Puntal",,"el-puntal",,"ES","04271","0","0","37.47751","-2.36815","0","-1"
"43250","El Real",,"el-real",,"ES","04628","0","0","37.26086","-1.91550","0","-1"
"43251","El Realengo",,"el-realengo",,"ES","04610","0","0","37.34693","-1.85134","0","-1"
"43252","El Reconco",,"el-reconco",,"ES","04899","0","0","37.33963","-2.48058","0","-1"
"43253","El Reul Alto",,"el-reul-alto",,"ES","04867","0","0","37.28460","-2.34756","0","-1"
"43254","El Rincón",,"el-rincon",,"ES","04274","0","0","37.35153","-1.78933","0","-1"
"43255","El Rincon del Marques",,"el-rincon-del-marques",,"ES","04279","0","0","37.08898","-2.27048","0","-1"
"43256","El Río Chico",,"el-rio-chico",,"ES","04769","0","0","36.79430","-2.99573","0","-1"
"43257","El Rio Claro",,"el-rio-claro",,"ES","04830","0","0","37.70641","-2.10784","0","-1"
"43258","El Rio de Mula",,"el-rio-de-mula",,"ES","04820","0","0","37.63392","-2.10994","0","-1"
"43259","El Río Grande",,"el-rio-grande",,"ES","04769","0","0","36.81942","-3.02556","0","-1"
"43260","El Ruini",,"el-ruini",,"ES","04560","0","0","36.93844","-2.47099","0","-1"
"43261","El Rulador",,"el-rulador",,"ES","04610","0","0","37.29561","-1.88411","0","-1"
"43262","El Sacristan",,"el-sacristan",,"ES","04271","0","0","37.19458","-2.40262","0","-1"
"43263","El Saeti",,"el-saeti",,"ES","04271","0","0","37.21470","-2.08613","0","-1"
"43264","El Saltador",,"el-saltador",,"ES","04211","0","0","37.40324","-1.90861","0","-1"
"43265","El Saltador Alto",,"el-saltador-alto",,"ES","04149","0","0","37.02994","-1.92941","0","-1"
"43266","El Saltador Bajo",,"el-saltador-bajo",,"ES","04149","0","0","37.02719","-1.92948","0","-1"
"43267","El Salto del Lobo",,"el-salto-del-lobo",,"ES","04277","0","0","37.06659","-2.03436","0","-1"
"43268","El Santuario",,"el-santuario",,"ES","04813","0","0","37.52486","-2.17548","0","-1"
"43269","El Santuario de Monteagud",,"el-santuario-de-monteagud",,"ES","04276","0","0","37.21161","-2.20376","0","-1"
"43270","El Solanillo",,"el-solanillo",,"ES","04743","0","0","36.73501","-2.65850","0","-1"
"43271","El Tablar",,"el-tablar",,"ES","04859","0","0","37.26394","-2.21340","0","-1"
"43272","El Tallón Bajo",,"el-tallon-bajo",,"ES","04212","0","0","37.16642","-2.48974","0","-1"
"43273","El Tesoro",,"el-tesoro",,"ES","04277","0","0","37.06659","-2.03436","0","-1"
"43274","El Tomillar",,"el-tomillar",,"ES","04618","0","0","37.30152","-1.76819","0","-1"
"43275","El Toril",,"el-toril",,"ES","04778","0","0","36.75207","-3.05406","0","-1"
"43276","El Valle",,"el-valle",,"ES","04897","0","0","37.32300","-2.56917","0","-1"
"43277","El Villar",,"el-villar",,"ES","04813","0","0","37.59835","-2.25219","0","-1"
"43278","El Viso",,"el-viso",,"ES","04113","0","0","36.87991","-2.20395","0","-1"
"43279","Enix",,"enix",,"ES","04729","0","0","36.87704","-2.60211","0","-1"
"43280","Era Alta",,"era-alta",,"ES","04610","0","0","37.97473","-1.14934","0","-1"
"43281","Escúllar",,"escullar",,"ES","04532","0","0","37.17742","-2.73586","0","-1"
"43282","Espeliz",,"espeliz",,"ES","04200","0","0","37.06689","-2.34948","0","-1"
"43283","Estación",,"estacion",,"ES","04887","0","0","37.39959","-1.75211","0","-1"
"43284","Estación Férrea",,"estacion-ferrea",,"ES","04890","0","0","37.33551","-2.54685","0","-1"
"43285","Estacion Ferrocarril",,"estacion-ferrocarril",,"ES","04420","0","0","37.40052","-1.75059","0","-1"
"43286","Félix",,"felix",,"ES","04728","0","0","36.86892","-2.65792","0","-1"
"43287","Fernanperez",,"fernanperez",,"ES","04116","0","0","36.87996","-2.01569","0","-1"
"43288","Fiñana",,"finana",,"ES","04500","0","0","37.17101","-2.84068","0","-1"
"43289","Fines",,"fines",,"ES","04869","0","0","37.35887","-2.26296","0","-1"
"43290","Fondón",,"fondon",,"ES","04460","0","0","36.97942","-2.85836","0","-1"
"43291","Frajali Alto",,"frajali-alto",,"ES","04890","0","0","37.34424","-2.56933","0","-1"
"43292","Frajali Bajo",,"frajali-bajo",,"ES","04890","0","0","37.34424","-2.56933","0","-1"
"43293","Frax",,"frax",,"ES","04810","0","0","37.46134","-2.26551","0","-1"
"43294","Frax de Arriba",,"frax-de-arriba",,"ES","04810","0","0","37.47217","-2.28415","0","-1"
"43295","Fuenblanquilla",,"fuenblanquilla",,"ES","04271","0","0","37.27926","-2.10274","0","-1"
"43296","Fuencaliente y Calera",,"fuencaliente-y-calera",,"ES","04897","0","0","37.35836","-2.56033","0","-1"
"43297","Fuente Amarga",,"fuente-amarga",,"ES","04693","0","0","37.49351","-1.96432","0","-1"
"43298","Fuente del Mojon",,"fuente-del-mojon",,"ES","04800","0","0","37.47044","-2.12539","0","-1"
"43299","Fuente del Pino",,"fuente-del-pino",,"ES","04650","0","0","37.37593","-2.03712","0","-1"
"43300","Fuente Jaula",,"fuente-jaula",,"ES","04610","0","0","37.34693","-1.85134","0","-1"
"43301","Fuente Santa",,"fuente-santa",,"ES","04550","0","0","37.16263","-2.55942","0","-1"
"43302","Fuente Victoria",,"fuente-victoria",,"ES","04479","0","0","36.98544","-2.87679","0","-1"
"43303","Gacia",,"gacia",,"ES","04694","0","0","37.40311","-1.90779","0","-1"
"43304","Gacia Alto",,"gacia-alto",,"ES","04277","0","0","37.10157","-2.03067","0","-1"
"43305","Gacia Bajo",,"gacia-bajo",,"ES","04277","0","0","37.07107","-2.01090","0","-1"
"43306","Gádor",,"gador",,"ES","04560","0","0","36.95393","-2.49294","0","-1"
"43307","Gafares",,"gafares",,"ES","04149","0","0","37.01620","-1.99381","0","-1"
"43308","Gafarillos",,"gafarillos",,"ES","04277","0","0","37.05753","-2.01986","0","-1"
"43309","Garrido",,"garrido",,"ES","04270","0","0","37.16285","-2.15149","0","-1"
"43310","Garrucha",,"garrucha",,"ES","04630","0","0","37.17925","-1.82190","0","-1"
"43311","Gasparillo",,"gasparillo",,"ES","04859","0","0","37.26632","-2.27489","0","-1"
"43312","Gérgal",,"gergal",,"ES","04549","0","0","37.16077","-2.67416","0","-1"
"43313","German",,"german",,"ES","04660","0","0","37.34679","-2.08592","0","-1"
"43314","Gibiley",,"gibiley",,"ES","04691","0","0","37.45706","-1.97347","0","-1"
"43315","Gilma",,"gilma",,"ES","04549","0","0","37.18030","-2.67556","0","-1"
"43316","Ginte",,"ginte",,"ES","04820","0","0","37.60036","-2.00773","0","-1"
"43317","Gochar",,"gochar",,"ES","04279","0","0","37.12840","-2.13549","0","-1"
"43318","Goñar",,"gonar",,"ES","04690","0","0","37.49237","-1.87808","0","-1"
"43319","Graj",,"graj",,"ES","04838","0","0","37.74068","-2.20563","0","-1"
"43320","Grima",,"grima",,"ES","04619","0","0","37.33294","-1.75778","0","-1"
"43321","Guainos Altos",,"guainos-altos",,"ES","04778","0","0","36.75968","-3.06506","0","-1"
"43322","Guainos Bajos",,"guainos-bajos",,"ES","04778","0","0","36.74741","-3.07255","0","-1"
"43323","Guarros",,"guarros",,"ES","04479","0","0","37.00485","-2.94335","0","-1"
"43324","Guazamara",,"guazamara",,"ES","04647","0","0","37.34773","-1.77905","0","-1"
"43325","Gurrias",,"gurrias",,"ES","04770","0","0","36.78506","-3.12238","0","-1"
"43326","Herradura",,"herradura",,"ES","04277","0","0","37.05285","-2.00747","0","-1"
"43327","Higueral",,"higueral",,"ES","04887","0","0","37.38591","-2.49845","0","-1"
"43328","Hirmes",,"hirmes",,"ES","04769","0","0","36.89217","-2.99867","0","-1"
"43329","Hornillos",,"hornillos",,"ES","04116","0","0","36.88774","-2.08483","0","-1"
"43330","Hortichuelas",,"hortichuelas",,"ES","04116","0","0","36.87461","-2.02864","0","-1"
"43331","Huebro",,"huebro",,"ES","04119","0","0","36.98676","-2.22286","0","-1"
"43332","Huechar",,"huechar",,"ES","04400","0","0","36.95750","-2.54119","0","-1"
"43333","Huécija",,"huecija",,"ES","04409","0","0","36.96788","-2.61144","0","-1"
"43334","Hueli",,"hueli",,"ES","04270","0","0","37.06382","-2.11017","0","-1"
"43335","Huercal",,"huercal",,"ES","04230","0","0","36.88415","-2.43598","0","-1"
"43336","Huércal de Almería",,"huercal-de-almeria",,"ES","04230","0","0","36.88415","-2.43598","0","-1"
"43337","Huércal-Overa",,"huercal-overa",,"ES","04600","0","0","37.39062","-1.94368","0","-1"
"43338","Huimayor",,"huimayor",,"ES","04860","0","0","37.36117","-2.30914","0","-1"
"43339","Huitar Mayor",,"huitar-mayor",,"ES","04860","0","0","37.37164","-2.30797","0","-1"
"43340","Huitar Menor",,"huitar-menor",,"ES","04860","0","0","37.36494","-2.31503","0","-1"
"43341","Illar",,"illar",,"ES","04431","0","0","36.98504","-2.63930","0","-1"
"43342","Instinción",,"instincion",,"ES","04430","0","0","36.99316","-2.65994","0","-1"
"43343","Jauca Alta",,"jauca-alta",,"ES","04899","0","0","37.41884","-2.55997","0","-1"
"43344","Jauca Baja",,"jauca-baja",,"ES","04899","0","0","37.40805","-2.54645","0","-1"
"43345","Jauro",,"jauro",,"ES","04271","0","0","37.25239","-1.96098","0","-1"
"43346","Joluque",,"joluque",,"ES","04200","0","0","37.00099","-2.34346","0","-1"
"43347","Jordana",,"jordana",,"ES","04619","0","0","37.28992","-1.86537","0","-1"
"43348","Jucainí",,"jucaini",,"ES","04619","0","0","37.31241","-1.82743","0","-1"
"43349","La Alameda",,"la-alameda",,"ES","04271","0","0","37.22420","-2.04356","0","-1"
"43350","La Alamicos-Los Dehesa",,"la-alamicos-los-dehesa",,"ES","04828","0","0","37.38177","-2.06141","0","-1"
"43351","La Alcantarilla",,"la-alcantarilla",,"ES","04638","0","0","37.14499","-1.86498","0","-1"
"43352","La Alcazaba",,"la-alcazaba",,"ES","04778","0","0","36.74909","-3.09404","0","-1"
"43353","La Alfahuara",,"la-alfahuara",,"ES","04830","0","0","37.70502","-2.24240","0","-1"
"43354","La Alfoquia",,"la-alfoquia",,"ES","04661","0","0","37.35265","-2.03989","0","-1"
"43355","La Algarrobina",,"la-algarrobina",,"ES","04610","0","0","37.25858","-1.84127","0","-1"
"43356","La Aljambra",,"la-aljambra",,"ES","04814","0","0","37.38588","-2.13559","0","-1"
"43357","La Alquería",,"la-alqueria",,"ES","04779","0","0","37.64077","-2.06945","0","-1"
"43358","La Alqueria de Abajo",,"la-alqueria-de-abajo",,"ES","04830","0","0","37.82050","-2.16313","0","-1"
"43359","La Barriada de Alcora",,"la-barriada-de-alcora",,"ES","04450","0","0","36.98870","-2.73460","0","-1"
"43360","La Calderona",,"la-calderona",,"ES","04420","0","0","36.98139","-2.50989","0","-1"
"43361","La Cañada",,"la-canada",,"ES","04811","0","0","37.09892","-2.26595","0","-1"
"43362","La Cañada de Cañepla",,"la-canada-de-canepla",,"ES","04839","0","0","37.79578","-2.28390","0","-1"
"43363","La Cañada de Don Rodrigo",,"la-canada-de-don-rodrigo",,"ES","04140","0","0","37.01235","-1.90807","0","-1"
"43364","La Cañada de las Cruces",,"la-canada-de-las-cruces",,"ES","04869","0","0","37.37165","-2.27289","0","-1"
"43365","La Cañada de Lorca",,"la-canada-de-lorca",,"ES","04618","0","0","37.27552","-1.84586","0","-1"
"43366","La Cañada de San Urbano",,"la-canada-de-san-urbano",,"ES","04120","0","0","36.83810","-2.40597","0","-1"
"43367","La Cañada Grande",,"la-canada-grande",,"ES","04839","0","0","37.81378","-2.27006","0","-1"
"43368","La Canal",,"la-canal",,"ES","04274","0","0","37.17753","-2.20553","0","-1"
"43369","La Carrasca",,"la-carrasca",,"ES","04828","0","0","37.09227","-1.94462","0","-1"
"43370","La Casa Blanca",,"la-casa-blanca",,"ES","04279","0","0","37.34738","-2.10309","0","-1"
"43371","La Cinta",,"la-cinta",,"ES","04660","0","0","37.34278","-2.10556","0","-1"
"43372","La Concepción",,"la-concepcion",,"ES","04662","0","0","37.33855","-1.99701","0","-1"
"43373","La Cueva del Pájaro",,"la-cueva-del-pajaro",,"ES","04149","0","0","37.03490","-1.96070","0","-1"
"43374","La Cumbre",,"la-cumbre",,"ES","04270","0","0","37.06399","-2.16378","0","-1"
"43375","La Curva",,"la-curva",,"ES","04770","0","0","36.75858","-2.97857","0","-1"
"43376","La Dehesa",,"la-dehesa",,"ES","04828","0","0","37.60324","-2.07832","0","-1"
"43377","La Envia",,"la-envia",,"ES","04727","0","0","36.83839","-2.61681","0","-1"
"43378","La Ermita",,"la-ermita",,"ES","04810","0","0","37.47191","-2.21911","0","-1"
"43379","La Estación",,"la-estacion",,"ES","04500","0","0","37.39959","-1.75211","0","-1"
"43380","La Fabriquilla",,"la-fabriquilla",,"ES","04151","0","0","36.74087","-2.20685","0","-1"
"43381","La Fuensanta",,"la-fuensanta",,"ES","04230","0","0","37.51434","-1.95593","0","-1"
"43382","La Fuente",,"la-fuente",,"ES","04647","0","0","37.38964","-1.74453","0","-1"
"43383","La Fuente Abad",,"la-fuente-abad",,"ES","04628","0","0","37.22303","-1.93080","0","-1"
"43384","La Fuente de la Higuera",,"la-fuente-de-la-higuera",,"ES","04276","0","0","36.85210","-2.93598","0","-1"
"43385","La Fuente del Ahijado",,"la-fuente-del-ahijado",,"ES","04778","0","0","36.75158","-3.03784","0","-1"
"43386","La Fuente del Negro",,"la-fuente-del-negro",,"ES","04810","0","0","37.48650","-2.36736","0","-1"
"43387","La Fuente del Royo",,"la-fuente-del-royo",,"ES","04639","0","0","37.06898","-1.98717","0","-1"
"43388","La Fuente del Tío Molina",,"la-fuente-del-tio-molina",,"ES","04858","0","0","37.30448","-2.17173","0","-1"
"43389","La Fuente Santilla",,"la-fuente-santilla",,"ES","04779","0","0","36.75667","-2.98881","0","-1"
"43390","La Fuentecilla",,"la-fuentecilla",,"ES","04274","0","0","37.19300","-2.19749","0","-1"
"43391","La Gangosa",,"la-gangosa",,"ES","04738","0","0","36.80318","-2.62284","0","-1"
"43392","La Heredad",,"la-heredad",,"ES","04500","0","0","37.16638","-2.88051","0","-1"
"43393","La Herradura",,"la-herradura",,"ES","04649","0","0","37.43051","-1.73364","0","-1"
"43394","La Herrería",,"la-herreria",,"ES","04289","0","0","37.34107","-2.55028","0","-1"
"43395","La Hojilla",,"la-hojilla",,"ES","04850","0","0","37.37415","-2.21670","0","-1"
"43396","La Hoya",,"la-hoya",,"ES","04660","0","0","37.47765","-2.00361","0","-1"
"43397","La Hoya de la Zarza",,"la-hoya-de-la-zarza",,"ES","04858","0","0","37.30958","-2.17028","0","-1"
"43398","La Huelga",,"la-huelga",,"ES","04289","0","0","37.11533","-2.01243","0","-1"
"43399","La Huerta",,"la-huerta",,"ES","04629","0","0","37.24773","-1.94228","0","-1"
"43400","La Isleta",,"la-isleta",,"ES","04118","0","0","36.81395","-2.05152","0","-1"
"43401","La Islica",,"la-islica",,"ES","04149","0","0","37.01556","-1.91932","0","-1"
"43402","La Juaida",,"la-juaida",,"ES","04240","0","0","36.87062","-2.42335","0","-1"
"43403","La Loma",,"la-loma",,"ES","04693","0","0","36.84981","-2.44977","0","-1"
"43404","La Loma de los Vargas",,"la-loma-de-los-vargas",,"ES","04770","0","0","36.85930","-3.21728","0","-1"
"43405","La Lomilla",,"la-lomilla",,"ES","04738","0","0","36.88791","-3.10932","0","-1"
"43406","La Losilla",,"la-losilla",,"ES","04829","0","0","37.57052","-2.00474","0","-1"
"43407","La Mata de Bolaimí",,"la-mata-de-bolaimi",,"ES","04828","0","0","37.38177","-2.06141","0","-1"
"43408","La Mela",,"la-mela",,"ES","04271","0","0","37.16490","-2.10728","0","-1"
"43409","La Mesa Roldan",,"la-mesa-roldan",,"ES","04149","0","0","36.94226","-1.90761","0","-1"
"43410","La Mojonera",,"la-mojonera",,"ES","04745","0","0","36.75254","-2.68816","0","-1"
"43411","La Mulería",,"la-muleria",,"ES","04618","0","0","37.28658","-1.79306","0","-1"
"43412","La Noria",,"la-noria",,"ES","04860","0","0","37.16617","-2.82883","0","-1"
"43413","La Palmera",,"la-palmera",,"ES","04858","0","0","37.30493","-2.18024","0","-1"
"43414","La Parata",,"la-parata",,"ES","04638","0","0","37.41836","-1.99836","0","-1"
"43415","La Parra",,"la-parra",,"ES","04770","0","0","37.57276","-2.03892","0","-1"
"43416","La Peñarrodada",,"la-penarrodada",,"ES","04769","0","0","36.86479","-2.96932","0","-1"
"43417","La Perla",,"la-perla",,"ES","04660","0","0","37.34207","-2.09117","0","-1"
"43418","La Perulaca",,"la-perulaca",,"ES","04288","0","0","37.18825","-1.92375","0","-1"
"43419","La Perulera",,"la-perulera",,"ES","04692","0","0","37.43933","-2.01940","0","-1"
"43420","La Piedra Amarilla",,"la-piedra-amarilla",,"ES","04810","0","0","37.38841","-2.19744","0","-1"
"43421","La Piedra de Zahor",,"la-piedra-de-zahor",,"ES","04858","0","0","37.26237","-2.13495","0","-1"
"43422","La Portilla",,"la-portilla",,"ES","04619","0","0","37.28909","-1.86597","0","-1"
"43423","La Rambla Algibe",,"la-rambla-algibe",,"ES","04271","0","0","37.22048","-2.11493","0","-1"
"43424","La Rambla de Abajo",,"la-rambla-de-abajo",,"ES","04825","0","0","37.60622","-2.21289","0","-1"
"43425","La Rambla de Arriba",,"la-rambla-de-arriba",,"ES","04825","0","0","37.59464","-2.23037","0","-1"
"43426","La Rambla de la Higuera",,"la-rambla-de-la-higuera",,"ES","04692","0","0","37.43594","-2.07612","0","-1"
"43427","La Rambla Honda",,"la-rambla-honda",,"ES","04211","0","0","37.03271","-2.17151","0","-1"
"43428","La Redonda",,"la-redonda",,"ES","04710","0","0","36.78086","-2.74911","0","-1"
"43429","La Rondeña",,"la-rondena",,"ES","04277","0","0","37.05031","-2.00766","0","-1"
"43430","La Serena",,"la-serena",,"ES","04288","0","0","36.71603","-2.63241","0","-1"
"43431","La Tejica",,"la-tejica",,"ES","04279","0","0","36.89115","-2.66762","0","-1"
"43432","La Tía Lucía",,"la-tia-lucia",,"ES","04858","0","0","37.27132","-2.14072","0","-1"
"43433","La Vega",,"la-vega",,"ES","04211","0","0","37.03444","-2.26466","0","-1"
"43434","La Venta del Viso",,"la-venta-del-viso",,"ES","04746","0","0","36.79385","-2.69853","0","-1"
"43435","La Yegua Alta",,"la-yegua-alta",,"ES","04813","0","0","37.55015","-2.24255","0","-1"
"43436","La Yegua Baja",,"la-yegua-baja",,"ES","04813","0","0","37.54529","-2.23208","0","-1"
"43437","Lance de la Virgen",,"lance-de-la-virgen",,"ES","04778","0","0","36.74699","-3.04565","0","-1"
"43438","Laroya",,"laroya",,"ES","04868","0","0","37.29667","-2.32960","0","-1"
"43439","Las Adelfas",,"las-adelfas",,"ES","04510","0","0","37.17059","-2.76800","0","-1"
"43440","Las Alcubillas",,"las-alcubillas",,"ES","04558","0","0","37.09155","-2.58352","0","-1"
"43441","Las Alcubillas Altas",,"las-alcubillas-altas",,"ES","04558","0","0","37.09163","-2.58376","0","-1"
"43442","Las Aneas",,"las-aneas",,"ES","04559","0","0","37.14622","-2.53707","0","-1"
"43443","Las Cabañuelas",,"las-cabanuelas",,"ES","04738","0","0","36.81698","-2.63809","0","-1"
"43444","Las Canalejas",,"las-canalejas",,"ES","04619","0","0","37.37150","-1.76164","0","-1"
"43445","Las Cantinas",,"las-cantinas",,"ES","04738","0","0","36.80892","-2.69191","0","-1"
"43446","Las Casas",,"las-casas",,"ES","04829","0","0","37.63591","-2.17510","0","-1"
"43447","Las Casicas",,"las-casicas",,"ES","04850","0","0","37.54829","-1.81507","0","-1"
"43448","Las Cobatillas",,"las-cobatillas",,"ES","04839","0","0","37.87614","-2.27295","0","-1"
"43449","Las Cuartillas",,"las-cuartillas",,"ES","04638","0","0","37.15623","-1.84637","0","-1"
"43450","Las Cuatro Higueras",,"las-cuatro-higueras",,"ES","04779","0","0","36.75866","-2.96919","0","-1"
"43451","Las Cumbres",,"las-cumbres",,"ES","04230","0","0","36.89033","-2.46540","0","-1"
"43452","Las Cunas",,"las-cunas",,"ES","04618","0","0","37.27197","-1.83973","0","-1"
"43453","Las Cupillas",,"las-cupillas",,"ES","04619","0","0","37.30687","-1.87666","0","-1"
"43454","Las Herrerías",,"las-herrerias",,"ES","04618","0","0","37.27204","-1.79579","0","-1"
"43455","Las Hilarias",,"las-hilarias",,"ES","04899","0","0","37.38135","-2.53196","0","-1"
"43456","Las Juntas",,"las-juntas",,"ES","04510","0","0","37.14658","-2.75555","0","-1"
"43457","Las Labores",,"las-labores",,"ES","04814","0","0","37.46971","-1.89351","0","-1"
"43458","Las Marinas",,"las-marinas",,"ES","04621","0","0","37.20513","-1.81294","0","-1"
"43459","Las Menas",,"las-menas",,"ES","04890","0","0","37.28426","-2.51176","0","-1"
"43460","Las Minas",,"las-minas",,"ES","04560","0","0","37.48021","-1.99001","0","-1"
"43461","Las Moletas",,"las-moletas",,"ES","04271","0","0","37.16723","-2.03822","0","-1"
"43462","Las Negras",,"las-negras",,"ES","04116","0","0","36.88013","-2.00454","0","-1"
"43463","Las Norias",,"las-norias",,"ES","04500","0","0","37.46044","-1.85741","0","-1"
"43464","Las Norias de Daza",,"las-norias-de-daza",,"ES","04716","0","0","36.75725","-2.74314","0","-1"
"43465","Las Orillas",,"las-orillas",,"ES","04618","0","0","37.27494","-1.84557","0","-1"
"43466","Las Piedras",,"las-piedras",,"ES","04693","0","0","37.46723","-1.98732","0","-1"
"43467","Las Piletas",,"las-piletas",,"ES","04549","0","0","37.15968","-2.67504","0","-1"
"43468","Las Pocicas",,"las-pocicas",,"ES","04813","0","0","37.47797","-2.14978","0","-1"
"43469","Las Rozas",,"las-rozas",,"ES","04610","0","0","37.34693","-1.85134","0","-1"
"43470","Las Tablas",,"las-tablas",,"ES","04559","0","0","37.14277","-2.53709","0","-1"
"43471","Las Tahullas",,"las-tahullas",,"ES","04660","0","0","37.35106","-2.10697","0","-1"
"43472","Laujar de Andarax",,"laujar-de-andarax",,"ES","04470","0","0","36.99384","-2.88922","0","-1"
"43473","Les Soleres",,"les-soleres",,"ES","04530","0","0","37.43218","-1.78308","0","-1"
"43474","Lijar",,"lijar",,"ES","04859","0","0","37.29527","-2.21993","0","-1"
"43475","Limaria",,"limaria",,"ES","04661","0","0","37.39364","-2.08242","0","-1"
"43476","Llanos de los Olleres",,"llanos-de-los-olleres",,"ES","04812","0","0","37.42638","-2.16529","0","-1"
"43477","Llanos de Vicar",,"llanos-de-vicar",,"ES","04738","0","0","36.81726","-2.63844","0","-1"
"43478","Llanos del Espino",,"llanos-del-espino",,"ES","04812","0","0","37.43152","-2.18113","0","-1"
"43479","Locaiba",,"locaiba",,"ES","04814","0","0","37.26878","-2.23753","0","-1"
"43480","Loma Cabrera",,"loma-cabrera",,"ES","04120","0","0","36.85710","-2.38369","0","-1"
"43481","Los Adrianes",,"los-adrianes",,"ES","04811","0","0","37.50547","-2.26333","0","-1"
"43482","Los Alamillos",,"los-alamillos",,"ES","04149","0","0","36.99284","-2.01322","0","-1"
"43483","Los Álamos",,"los-alamos",,"ES","04811","0","0","37.54141","-2.33058","0","-1"
"43484","Los Algarrobos",,"los-algarrobos",,"ES","04618","0","0","37.15160","-1.89724","0","-1"
"43485","Los Alias",,"los-alias",,"ES","04278","0","0","37.14518","-2.08846","0","-1"
"43486","Los Andreses",,"los-andreses",,"ES","04278","0","0","37.14835","-2.08197","0","-1"
"43487","Los Aranegas",,"los-aranegas",,"ES","04826","0","0","37.61816","-2.16774","0","-1"
"43488","Los Arroyos",,"los-arroyos",,"ES","04275","0","0","37.24416","-2.33613","0","-1"
"43489","Los Asensio",,"los-asensio",,"ES","04820","0","0","36.96739","-2.60813","0","-1"
"43490","Los Aznares",,"los-aznares",,"ES","04600","0","0","37.43882","-1.73492","0","-1"
"43491","Los Baños de Guardias Viejas",,"los-banos-de-guardias-viejas",,"ES","04715","0","0","36.72251","-2.84400","0","-1"
"43492","Los Blesas",,"los-blesas",,"ES","04660","0","0","37.35389","-2.07633","0","-1"
"43493","Los Borregos",,"los-borregos",,"ES","04858","0","0","37.25964","-2.13537","0","-1"
"43494","Los Brevas",,"los-brevas",,"ES","04897","0","0","37.32157","-2.62885","0","-1"
"43495","Los Cabreras",,"los-cabreras",,"ES","04827","0","0","37.54141","-2.01689","0","-1"
"43496","Los Calesas",,"los-calesas",,"ES","04858","0","0","37.27114","-2.12960","0","-1"
"43497","Los Campoys",,"los-campoys",,"ES","04647","0","0","37.39586","-1.75600","0","-1"
"43498","Los Canales",,"los-canales",,"ES","04830","0","0","37.68335","-2.07505","0","-1"
"43499","Los Caparroses",,"los-caparroses",,"ES","04640","0","0","37.14769","-1.92193","0","-1"
"43500","Los Carasoles",,"los-carasoles",,"ES","04661","0","0","37.36197","-2.01166","0","-1"
"43501","Los Carmonas",,"los-carmonas",,"ES","04600","0","0","37.43174","-1.89039","0","-1"
"43502","Los Carrascos",,"los-carrascos",,"ES","04660","0","0","36.84769","-2.44727","0","-1"
"43503","Los Castaños",,"los-castanos",,"ES","04278","0","0","37.14568","-2.04318","0","-1"
"43504","Los Castos",,"los-castos",,"ES","04660","0","0","37.35389","-2.07633","0","-1"
"43505","Los Cerricos",,"los-cerricos",,"ES","04813","0","0","37.53410","-2.20277","0","-1"
"43506","Los Chacones",,"los-chacones",,"ES","04810","0","0","37.46571","-2.20885","0","-1"
"43507","Los Chulos",,"los-chulos",,"ES","04810","0","0","37.46751","-2.28274","0","-1"
"43508","Los Claveros",,"los-claveros",,"ES","04890","0","0","37.37925","-2.50296","0","-1"
"43509","Los Cojos",,"los-cojos",,"ES","04660","0","0","37.35389","-2.07633","0","-1"
"43510","Los Collados",,"los-collados",,"ES","04288","0","0","37.14234","-1.99338","0","-1"
"43511","Los Colorados",,"los-colorados",,"ES","04660","0","0","37.35389","-2.07633","0","-1"
"43512","Los Cortijillos",,"los-cortijillos",,"ES","04100","0","0","36.85071","-2.38931","0","-1"
"43513","Los Dioses",,"los-dioses",,"ES","04271","0","0","37.25282","-2.06898","0","-1"
"43514","Los Donatos",,"los-donatos",,"ES","04897","0","0","37.34987","-2.53139","0","-1"
"43515","Los Encalmados",,"los-encalmados",,"ES","04211","0","0","37.03321","-2.24124","0","-1"
"43516","Los Entrenas",,"los-entrenas",,"ES","04869","0","0","37.37165","-2.27289","0","-1"
"43517","Los Escullos",,"los-escullos",,"ES","04118","0","0","36.80377","-2.06394","0","-1"
"43518","Los Finos",,"los-finos",,"ES","04800","0","0","37.50816","-2.19388","0","-1"
"43519","Los Gallardos",,"los-gallardos",,"ES","04280","0","0","37.16948","-1.94010","0","-1"
"43520","Los Garcías",,"los-garcias",,"ES","04660","0","0","37.28473","-2.14032","0","-1"
"43521","Los Gateros",,"los-gateros",,"ES","04820","0","0","37.48683","-2.03241","0","-1"
"43522","Los Gatos",,"los-gatos",,"ES","04826","0","0","37.63465","-2.11789","0","-1"
"43523","Los Gazquez",,"los-gazquez",,"ES","04811","0","0","37.55427","-1.95545","0","-1"
"43524","Los Gibaos",,"los-gibaos",,"ES","04691","0","0","37.45706","-1.97347","0","-1"
"43525","Los Giles",,"los-giles",,"ES","04289","0","0","37.12548","-2.00821","0","-1"
"43526","Los Gonzalez",,"los-gonzalez",,"ES","04810","0","0","37.46751","-2.28274","0","-1"
"43527","Los Grillos",,"los-grillos",,"ES","04100","0","0","36.89222","-2.19420","0","-1"
"43528","Los Guiraos",,"los-guiraos",,"ES","04647","0","0","37.36663","-1.80081","0","-1"
"43529","Los Hernández",,"los-hernandez",,"ES","04899","0","0","37.36035","-2.54785","0","-1"
"43530","Los Herrera",,"los-herrera",,"ES","04271","0","0","37.22048","-2.11493","0","-1"
"43531","Los Huevanillas",,"los-huevanillas",,"ES","04660","0","0","37.30376","-2.09374","0","-1"
"43532","Los Jacinto",,"los-jacinto",,"ES","04811","0","0","37.38798","-2.30501","0","-1"
"43533","Los Jarales",,"los-jarales",,"ES","04271","0","0","37.22125","-2.14133","0","-1"
"43534","Los Llanos",,"los-llanos",,"ES","04650","0","0","37.09642","-2.26174","0","-1"
"43535","Los Llanos del Mayor",,"los-llanos-del-mayor",,"ES","04628","0","0","37.23610","-1.91293","0","-1"
"43536","Los Loberos",,"los-loberos",,"ES","04277","0","0","37.03421","-1.99897","0","-1"
"43537","Los Lobos",,"los-lobos",,"ES","04619","0","0","37.30800","-1.76546","0","-1"
"43538","Los Mañas",,"los-manas",,"ES","04270","0","0","37.08614","-2.08613","0","-1"
"43539","Los Manolones",,"los-manolones",,"ES","04887","0","0","37.37305","-2.44763","0","-1"
"43540","Los Marteses",,"los-marteses",,"ES","04890","0","0","37.34424","-2.56933","0","-1"
"43541","Los Martínez",,"los-martinez",,"ES","04271","0","0","37.54703","-2.25433","0","-1"
"43542","Los Matreros",,"los-matreros",,"ES","04271","0","0","37.21470","-2.08613","0","-1"
"43543","Los Menas",,"los-menas",,"ES","04693","0","0","37.35567","-1.99936","0","-1"
"43544","Los Menchones",,"los-menchones",,"ES","04650","0","0","37.37593","-2.03712","0","-1"
"43545","Los Milanes",,"los-milanes",,"ES","04510","0","0","37.15395","-2.75003","0","-1"
"43546","Los Molinas",,"los-molinas",,"ES","04858","0","0","37.27254","-2.13185","0","-1"
"43547","Los Molinos",,"los-molinos",,"ES","04270","0","0","37.04912","-2.07324","0","-1"
"43548","Los Monjos",,"los-monjos",,"ES","04533","0","0","37.11559","-2.80648","0","-1"
"43549","Los Morales",,"los-morales",,"ES","04274","0","0","37.17638","-2.17488","0","-1"
"43550","Los Moras",,"los-moras",,"ES","04770","0","0","36.78817","-3.10660","0","-1"
"43551","Los Morillas",,"los-morillas",,"ES","04815","0","0","37.29211","-2.12978","0","-1"
"43552","Los Navarros",,"los-navarros",,"ES","04549","0","0","37.11332","-2.62548","0","-1"
"43553","Los Nietos",,"los-nietos",,"ES","04117","0","0","36.88525","-2.18360","0","-1"
"43554","Los Nudos",,"los-nudos",,"ES","04200","0","0","37.16331","-2.32481","0","-1"
"43555","Los Olivillos",,"los-olivillos",,"ES","04211","0","0","36.82770","-2.87246","0","-1"
"43556","Los Oquendos",,"los-oquendos",,"ES","04826","0","0","37.63395","-2.11311","0","-1"
"43557","Los Pardos",,"los-pardos",,"ES","04692","0","0","37.50350","-2.06189","0","-1"
"43558","Los Pedregales",,"los-pedregales",,"ES","04691","0","0","37.19829","-2.94606","0","-1"
"43559","Los Perales",,"los-perales",,"ES","04277","0","0","37.09322","-2.04973","0","-1"
"43560","Los Peraltas",,"los-peraltas",,"ES","04660","0","0","37.35389","-2.07633","0","-1"
"43561","Los Perdigones",,"los-perdigones",,"ES","04619","0","0","37.28992","-1.86537","0","-1"
"43562","Los Pérez",,"los-perez",,"ES","04770","0","0","37.36563","-2.51981","0","-1"
"43563","Los Pichiriches",,"los-pichiriches",,"ES","04211","0","0","37.03693","-2.27723","0","-1"
"43564","Los Pinares",,"los-pinares",,"ES","04647","0","0","37.42974","-1.81053","0","-1"
"43565","Los Pinos",,"los-pinos",,"ES","04288","0","0","36.85173","-2.35334","0","-1"
"43566","Los Pocos Bollos",,"los-pocos-bollos",,"ES","04618","0","0","37.27552","-1.84586","0","-1"
"43567","Los Porteros",,"los-porteros",,"ES","04880","0","0","37.40958","-2.50989","0","-1"
"43568","Los Ramales",,"los-ramales",,"ES","04826","0","0","37.61881","-2.16695","0","-1"
"43569","Los Ramos",,"los-ramos",,"ES","04271","0","0","37.02815","-2.13684","0","-1"
"43570","Los Raspajos",,"los-raspajos",,"ES","04897","0","0","37.32157","-2.62885","0","-1"
"43571","Los Retacos",,"los-retacos",,"ES","04211","0","0","37.04796","-2.27354","0","-1"
"43572","Los Risas",,"los-risas",,"ES","04271","0","0","37.22048","-2.11493","0","-1"
"43573","Los Rojas",,"los-rojas",,"ES","04549","0","0","36.84826","-2.47094","0","-1"
"43574","Los Sanchos",,"los-sanchos",,"ES","04540","0","0","37.17742","-2.67035","0","-1"
"43575","Los Silos",,"los-silos",,"ES","04618","0","0","37.27611","-1.86324","0","-1"
"43576","Los Torrentes",,"los-torrentes",,"ES","04827","0","0","37.52362","-2.06097","0","-1"
"43577","Los Vegas",,"los-vegas",,"ES","04897","0","0","37.34145","-2.54639","0","-1"
"43578","Los Yesos",,"los-yesos",,"ES","04211","0","0","37.07750","-2.30523","0","-1"
"43579","Los Zoilos",,"los-zoilos",,"ES","04899","0","0","37.35438","-2.51171","0","-1"
"43580","Lubrín",,"lubrin",,"ES","04271","0","0","37.21586","-2.06706","0","-1"
"43581","Lucainena de Darrical",,"lucainena-de-darrical",,"ES","04768","0","0","36.91269","-3.02837","0","-1"
"43582","Lucainena de las Torres",,"lucainena-de-las-torres",,"ES","04210","0","0","37.04179","-2.20071","0","-1"
"43583","Lúcar",,"lucar",,"ES","04887","0","0","37.39965","-2.42707","0","-1"
"43584","Macael",,"macael",,"ES","04867","0","0","37.33229","-2.30489","0","-1"
"43585","Macian",,"macian",,"ES","04839","0","0","37.84571","-2.21064","0","-1"
"43586","Madrid",,"madrid",,"ES","04830","0","0","36.83341","-2.44916","0","-1"
"43587","Maguas",,"maguas",,"ES","04810","0","0","37.45039","-2.28234","0","-1"
"43588","Malinos",,"malinos",,"ES","04810","0","0","37.46751","-2.28274","0","-1"
"43589","Mancheño",,"mancheno",,"ES","04839","0","0","37.89592","-2.13491","0","-1"
"43590","Marchal de Enix",,"marchal-de-enix",,"ES","04729","0","0","36.87744","-2.59952","0","-1"
"43591","Marchal del Abogado",,"marchal-del-abogado",,"ES","04890","0","0","37.30812","-2.53588","0","-1"
"43592","Marchalico Viñicas",,"marchalico-vinicas",,"ES","04277","0","0","37.06659","-2.03436","0","-1"
"43593","Maria",,"maria",,"ES","04838","0","0","37.71110","-2.16579","0","-1"
"43594","Marraque",,"marraque",,"ES","04260","0","0","36.93567","-2.44924","0","-1"
"43595","Matagorda",,"matagorda",,"ES","04715","0","0","36.72365","-2.84056","0","-1"
"43596","Mazarrulleque",,"mazarrulleque",,"ES","04151","0","0","36.81205","-2.25002","0","-1"
"43597","Mizala",,"mizala",,"ES","04277","0","0","37.10157","-2.03067","0","-1"
"43598","Mojácar",,"mojacar",,"ES","04638","0","0","37.13995","-1.85133","0","-1"
"43599","Mondújar",,"mondujar",,"ES","04420","0","0","36.96280","-2.49792","0","-1"
"43600","Montagon",,"montagon",,"ES","04510","0","0","37.16867","-2.76802","0","-1"
"43601","Montalviche",,"montalviche",,"ES","04830","0","0","37.70880","-2.06560","0","-1"
"43602","Moras",,"moras",,"ES","04279","0","0","37.13821","-2.13061","0","-1"
"43603","Moratón",,"moraton",,"ES","04213","0","0","37.16096","-2.32545","0","-1"
"43604","Moscolux",,"moscolux",,"ES","04560","0","0","36.93844","-2.50989","0","-1"
"43605","Motailon",,"motailon",,"ES","04820","0","0","37.60036","-2.00773","0","-1"
"43606","Nacimiento",,"nacimiento",,"ES","04540","0","0","37.10497","-2.64774","0","-1"
"43607","Níjar",,"nijar",,"ES","04100","0","0","36.96576","-2.20651","0","-1"
"43608","Nudos",,"nudos",,"ES","04213","0","0","37.16331","-2.32481","0","-1"
"43609","Ocaña",,"ocana",,"ES","04530","0","0","37.13152","-2.72726","0","-1"
"43610","Ohanes",,"ohanes",,"ES","04459","0","0","37.03723","-2.74517","0","-1"
"43611","Olula de Castro",,"olula-de-castro",,"ES","04212","0","0","37.17611","-2.47630","0","-1"
"43612","Olula del Río",,"olula-del-rio",,"ES","04860","0","0","37.35212","-2.29812","0","-1"
"43613","Oria",,"oria",,"ES","04800","0","0","37.47044","-2.12539","0","-1"
"43614","Oro Verde",,"oro-verde",,"ES","04200","0","0","37.08099","-2.36162","0","-1"
"43615","Padules",,"padules",,"ES","04458","0","0","36.99884","-2.77348","0","-1"
"43616","Pago Aguilar Bajo",,"pago-aguilar-bajo",,"ES","04212","0","0","37.07825","-2.38666","0","-1"
"43617","Pago de Escuchagrano",,"pago-de-escuchagrano",,"ES","04533","0","0","37.25805","-2.27853","0","-1"
"43618","Palomares",,"palomares",,"ES","04617","0","0","37.24917","-1.79837","0","-1"
"43619","Pampanico",,"pampanico",,"ES","04715","0","0","36.78176","-2.83303","0","-1"
"43620","Partaloa",,"partaloa",,"ES","04810","0","0","37.40604","-2.22643","0","-1"
"43621","Paterna del Río",,"paterna-del-rio",,"ES","04479","0","0","37.02088","-2.95309","0","-1"
"43622","Paulenca",,"paulenca",,"ES","04560","0","0","36.95648","-2.48681","0","-1"
"43623","Pechina",,"pechina",,"ES","04250","0","0","36.91667","-2.44062","0","-1"
"43624","Pedro Garcia",,"pedro-garcia",,"ES","04692","0","0","37.48231","-2.05672","0","-1"
"43625","Peñas Negras",,"penas-negras",,"ES","04277","0","0","37.05183","-2.04337","0","-1"
"43626","Pilancon",,"pilancon",,"ES","04897","0","0","37.39519","-2.61278","0","-1"
"43627","Pilar de Jaravía",,"pilar-de-jaravia",,"ES","04648","0","0","37.39335","-1.69229","0","-1"
"43628","Polopos",,"polopos",,"ES","04114","0","0","37.02656","-2.07922","0","-1"
"43629","Portocarrero",,"portocarrero",,"ES","04550","0","0","37.17548","-2.54472","0","-1"
"43630","Pozo de la Higuera",,"pozo-de-la-higuera",,"ES","04647","0","0","37.43928","-1.73890","0","-1"
"43631","Pozo de los Frailes",,"pozo-de-los-frailes",,"ES","04117","0","0","36.78912","-2.10906","0","-1"
"43632","Pozo del Esparto",,"pozo-del-esparto",,"ES","04640","0","0","37.33288","-1.69320","0","-1"
"43633","Pozo del Lobo",,"pozo-del-lobo",,"ES","04887","0","0","37.45249","-2.53570","0","-1"
"43634","Presillas Bajas",,"presillas-bajas",,"ES","04117","0","0","36.81460","-2.09197","0","-1"
"43635","Puebla de Vicar",,"puebla-de-vicar",,"ES","04738","0","0","36.80032","-2.64654","0","-1"
"43636","Pueblo Blanco",,"pueblo-blanco",,"ES","04117","0","0","36.80880","-2.59107","0","-1"
"43637","Puente de Guayar",,"puente-de-guayar",,"ES","04200","0","0","37.08099","-2.36162","0","-1"
"43638","Puertecico",,"puertecico",,"ES","04693","0","0","37.51460","-1.98438","0","-1"
"43639","Puerto Adentro",,"puerto-adentro",,"ES","04690","0","0","37.52925","-1.81950","0","-1"
"43640","Puerto Rey",,"puerto-rey",,"ES","04621","0","0","37.20328","-1.81030","0","-1"
"43641","Pujaire",,"pujaire",,"ES","04151","0","0","36.79325","-2.23114","0","-1"
"43642","Pulpí",,"pulpi",,"ES","04600","0","0","37.43174","-1.89039","0","-1"
"43643","Purchena",,"purchena",,"ES","04870","0","0","37.34855","-2.36155","0","-1"
"43644","Quijiliana",,"quijiliana",,"ES","04279","0","0","37.12647","-2.12748","0","-1"
"43645","Rágol",,"ragol",,"ES","04440","0","0","36.99564","-2.68099","0","-1"
"43646","Rambla de Taberno",,"rambla-de-taberno",,"ES","04692","0","0","37.40259","-1.99978","0","-1"
"43647","Rambla del Marqués",,"rambla-del-marques",,"ES","04276","0","0","36.75031","-3.01346","0","-1"
"43648","Rambla Grande",,"rambla-grande",,"ES","04691","0","0","37.42387","-1.95275","0","-1"
"43649","Rambla Morales",,"rambla-morales",,"ES","04150","0","0","36.83514","-2.22778","0","-1"
"43650","Ramil Alto",,"ramil-alto",,"ES","04898","0","0","37.38906","-2.58633","0","-1"
"43651","Ramil Bajo",,"ramil-bajo",,"ES","04898","0","0","37.38233","-2.59244","0","-1"
"43652","Retamar",,"retamar",,"ES","04131","0","0","36.83288","-2.31498","0","-1"
"43653","Rioja",,"rioja",,"ES","04260","0","0","36.94406","-2.46242","0","-1"
"43654","Rodalquilar",,"rodalquilar",,"ES","04115","0","0","36.84805","-2.04360","0","-1"
"43655","Roquetas de Mar",,"roquetas-de-mar",,"ES","04740","0","0","36.76427","-2.61493","0","-1"
"43656","Róquez",,"roquez",,"ES","04825","0","0","37.56461","-2.27932","0","-1"
"43657","Ruescas",,"ruescas",,"ES","04151","0","0","36.81520","-2.22646","0","-1"
"43658","Saladar y Leche",,"saladar-y-leche",,"ES","04114","0","0","36.96189","-2.09518","0","-1"
"43659","Saliente Alto",,"saliente-alto",,"ES","04813","0","0","37.51311","-2.15636","0","-1"
"43660","Saliente Bajo",,"saliente-bajo",,"ES","04813","0","0","36.85477","-2.45275","0","-1"
"43661","San Agustín",,"san-agustin",,"ES","04716","0","0","36.71316","-2.69387","0","-1"
"43662","San Agustin",,"san-agustin",,"ES","04717","0","0","36.71316","-2.69387","0","-1"
"43663","San Francisco",,"san-francisco",,"ES","04600","0","0","37.42231","-1.87821","0","-1"
"43664","San Isidro de Nijar",,"san-isidro-de-nijar",,"ES","04117","0","0","36.91108","-2.16860","0","-1"
"43665","San José",,"san-jose",,"ES","04118","0","0","36.75797","-2.10972","0","-1"
"43666","San Juan de los Terreros",,"san-juan-de-los-terreros",,"ES","04648","0","0","37.35329","-1.67842","0","-1"
"43667","San Miguel",,"san-miguel",,"ES","04811","0","0","36.82844","-2.45397","0","-1"
"43668","San Miguel de Pulpi",,"san-miguel-de-pulpi",,"ES","04649","0","0","37.40858","-1.74908","0","-1"
"43669","San Roque",,"san-roque",,"ES","04769","0","0","36.83638","-2.96899","0","-1"
"43670","San Silvestre",,"san-silvestre",,"ES","04710","0","0","36.77431","-2.72550","0","-1"
"43671","Santa Bárbara",,"santa-barbara",,"ES","04662","0","0","37.35170","-1.97475","0","-1"
"43672","Santa Cruz de Marchen",,"santa-cruz-de-marchen",,"ES","04568","0","0","37.00200","-2.59458","0","-1"
"43673","Santa Fe de Mondújar",,"santa-fe-de-mondujar",,"ES","04420","0","0","36.97506","-2.53028","0","-1"
"43674","Santa María de Nieva",,"santa-maria-de-nieva",,"ES","04693","0","0","37.46209","-1.98942","0","-1"
"43675","Santa Maria del Aguila",,"santa-maria-del-aguila",,"ES","04710","0","0","36.78309","-2.77587","0","-1"
"43676","Santillana",,"santillana",,"ES","04532","0","0","37.09051","-2.73063","0","-1"
"43677","Santo Domingo",,"santo-domingo",,"ES","04700","0","0","36.77002","-2.80068","0","-1"
"43678","Santopétar",,"santopetar",,"ES","04692","0","0","37.45408","-2.03565","0","-1"
"43679","Señés",,"senes",,"ES","04213","0","0","37.20457","-2.34754","0","-1"
"43680","Serón",,"seron",,"ES","04890","0","0","37.34424","-2.56933","0","-1"
"43681","Sierra Alhamilla",,"sierra-alhamilla",,"ES","04259","0","0","36.98889","-2.35139","0","-1"
"43682","Sierro",,"sierro",,"ES","04878","0","0","37.32348","-2.39853","0","-1"
"43683","Solana",,"solana",,"ES","04830","0","0","37.68307","-2.01885","0","-1"
"43684","Somontín",,"somontin",,"ES","04877","0","0","37.39139","-2.38913","0","-1"
"43685","Sorbas",,"sorbas",,"ES","04149","0","0","37.00084","-1.93497","0","-1"
"43686","Suflí",,"sufli",,"ES","04878","0","0","37.33820","-2.38952","0","-1"
"43687","Tabernas",,"tabernas",,"ES","04200","0","0","37.04945","-2.39268","0","-1"
"43688","Taberno",,"taberno",,"ES","04692","0","0","37.46729","-2.07621","0","-1"
"43689","Tahal",,"tahal",,"ES","04275","0","0","37.22804","-2.28497","0","-1"
"43690","Taibena",,"taibena",,"ES","04830","0","0","37.83248","-2.10575","0","-1"
"43691","Terque",,"terque",,"ES","04569","0","0","36.98358","-2.59723","0","-1"
"43692","Terreros",,"terreros",,"ES","04648","0","0","36.84704","-2.47073","0","-1"
"43693","Tices",,"tices",,"ES","04459","0","0","37.06171","-2.73255","0","-1"
"43694","Tíjola",,"tijola",,"ES","04880","0","0","37.34551","-2.43943","0","-1"
"43695","Tonosa",,"tonosa",,"ES","04827","0","0","37.52419","-2.06223","0","-1"
"43696","Topares",,"topares",,"ES","04839","0","0","37.86141","-2.22957","0","-1"
"43697","Torre del Campo",,"torre-del-campo",,"ES","04100","0","0","36.94623","-2.16934","0","-1"
"43698","Torrentes",,"torrentes",,"ES","04827","0","0","37.52362","-2.06097","0","-1"
"43699","Tristanes",,"tristanes",,"ES","04114","0","0","36.96189","-2.09533","0","-1"
"43700","Turre",,"turre",,"ES","04639","0","0","37.15225","-1.89490","0","-1"
"43701","Turrillas",,"turrillas",,"ES","04211","0","0","37.03019","-2.26410","0","-1"
"43702","Uleila del Campo",,"uleila-del-campo",,"ES","04274","0","0","37.18548","-2.20380","0","-1"
"43703","Urcal",,"urcal",,"ES","04691","0","0","37.46641","-1.92174","0","-1"
"43704","Urra",,"urra",,"ES","04277","0","0","37.06659","-2.03436","0","-1"
"43705","Urrácal",,"urracal",,"ES","04879","0","0","37.39732","-2.36507","0","-1"
"43706","Varguicas",,"varguicas",,"ES","04277","0","0","37.06670","-2.03356","0","-1"
"43707","Velefique",,"velefique",,"ES","04212","0","0","37.19375","-2.40369","0","-1"
"43708","Velez-Blanco",,"velez-blanco",,"ES","04830","0","0","37.69095","-2.09568","0","-1"
"43709","Vélez-Rubio",,"velez-rubio",,"ES","04820","0","0","37.64802","-2.07423","0","-1"
"43710","Venta del Pobre",,"venta-del-pobre",,"ES","04100","0","0","36.99222","-2.06896","0","-1"
"43711","Venta Gaspar",,"venta-gaspar",,"ES","04120","0","0","36.86800","-2.38608","0","-1"
"43712","Venta Nueva",,"venta-nueva",,"ES","04779","0","0","36.76004","-2.95951","0","-1"
"43713","Venta Ratonera",,"venta-ratonera",,"ES","04500","0","0","37.18819","-2.87798","0","-1"
"43714","Vera",,"vera",,"ES","04620","0","0","37.24686","-1.86824","0","-1"
"43715","Vera-Playa",,"vera-playa",,"ES","04621","0","0","37.21244","-1.81405","0","-1"
"43716","Viator",,"viator",,"ES","04240","0","0","36.88963","-2.42654","0","-1"
"43717","Vícar",,"vicar",,"ES","04721","0","0","36.83145","-2.64252","0","-1"
"43718","Villaricos",,"villaricos",,"ES","04616","0","0","37.24634","-1.77606","0","-1"
"43719","Vizcaino",,"vizcaino",,"ES","04610","0","0","37.41776","-1.82236","0","-1"
"43720","Zofre",,"zofre",,"ES","04274","0","0","37.20515","-2.19820","0","-1"
"43721","Zurgena",,"zurgena",,"ES","04650","0","0","37.37593","-2.03712","0","-1"
"43722","Abrajanejo",,"abrajanejo",,"ES","11630","0","0","36.72425","-5.59449","0","-1"
"43723","Alcalá de los Gazules",,"alcala-de-los-gazules",,"ES","11180","0","0","36.46045","-5.72372","0","-1"
"43724","Alcalá del Valle",,"alcala-del-valle",,"ES","11693","0","0","36.90492","-5.17324","0","-1"
"43725","Aldefilla",,"aldefilla",,"ES","11339","0","0","36.41357","-5.42431","0","-1"
"43726","Algar",,"algar",,"ES","11639","0","0","36.65533","-5.65742","0","-1"
"43727","Algeciras",,"algeciras",,"ES","11200","0","0","36.07865","-5.51154","0","-1"
"43728","Algodonales",,"algodonales",,"ES","11680","0","0","36.88092","-5.40577","0","-1"
"43729","Almoraima",,"almoraima",,"ES","11351","0","0","36.27722","-5.42823","0","-1"
"43730","Añina",,"anina",,"ES","11400","0","0","36.71588","-6.21257","0","-1"
"43731","Arcos de la Frontera",,"arcos-de-la-frontera",,"ES","11630","0","0","36.75078","-5.81239","0","-1"
"43732","Arenal",,"arenal",,"ES","11680","0","0","36.52680","-6.29114","0","-1"
"43733","Arroyo-Molino",,"arroyo-molino",,"ES","11687","0","0","36.20066","-5.41902","0","-1"
"43734","Arroyomolinos",,"arroyomolinos",,"ES","11688","0","0","40.28073","-3.91283","0","-1"
"43735","Barbate",,"barbate",,"ES","11160","0","0","36.19282","-5.91890","0","-1"
"43736","Barriada de Matagorda",,"barriada-de-matagorda",,"ES","11510","0","0","36.52828","-6.19396","0","-1"
"43737","Barrio de Jarana",,"barrio-de-jarana",,"ES","11518","0","0","36.50254","-6.14340","0","-1"
"43738","Barrio Nuevo",,"barrio-nuevo",,"ES","11149","0","0","36.33727","-6.08721","0","-1"
"43739","Bartivas",,"bartivas",,"ES","11138","0","0","36.45559","-6.13888","0","-1"
"43740","Benalup-Casas Viejas",,"benalup-casas-viejas",,"ES","11190","0","0","36.34284","-5.80940","0","-1"
"43741","Benamahoma",,"benamahoma",,"ES","11679","0","0","36.76448","-5.46638","0","-1"
"43742","Benaocaz",,"benaocaz",,"ES","11612","0","0","36.69952","-5.42126","0","-1"
"43743","Benharas",,"benharas",,"ES","11370","0","0","36.18539","-5.49275","0","-1"
"43744","Berben",,"berben",,"ES","11500","0","0","36.61373","-6.25069","0","-1"
"43745","Betis",,"betis",,"ES","11391","0","0","36.09133","-5.71975","0","-1"
"43746","Bocaleones",,"bocaleones",,"ES","11688","0","0","36.85364","-5.40870","0","-1"
"43747","Bolonia",,"bolonia",,"ES","11391","0","0","36.08843","-5.77552","0","-1"
"43748","Bonanza",,"bonanza",,"ES","11540","0","0","36.80280","-6.33535","0","-1"
"43749","Bornos",,"bornos",,"ES","11640","0","0","36.81459","-5.74336","0","-1"
"43750","Cabañas",,"cabanas",,"ES","11158","0","0","36.90196","-5.27250","0","-1"
"43751","Cádiz",,"cadiz",,"ES","11001","0","0","36.53205","-6.29769","0","-1"
"43752","Camino de Espera",,"camino-de-espera",,"ES","11405","0","0","36.61048","-5.98766","0","-1"
"43753","Campamento",,"campamento",,"ES","11314","0","0","36.17577","-5.37506","0","-1"
"43754","Campano",,"campano",,"ES","11130","0","0","36.36010","-6.13330","0","-1"
"43755","Campo Huerta",,"campo-huerta",,"ES","11680","0","0","36.88826","-5.37823","0","-1"
"43756","Campo Soto",,"campo-soto",,"ES","11120","0","0","36.39068","-6.07509","0","-1"
"43757","Campobuche",,"campobuche",,"ES","11610","0","0","36.75836","-5.36607","0","-1"
"43758","Cañada de la Jara",,"canada-de-la-jara",,"ES","11380","0","0","36.46883","-5.46901","0","-1"
"43759","Cantarranas",,"cantarranas",,"ES","11179","0","0","36.61848","-6.27312","0","-1"
"43760","Carboneros",,"carboneros",,"ES","11139","0","0","38.22748","-3.63111","0","-1"
"43761","Carteya",,"carteya",,"ES","11369","0","0","36.19098","-5.42492","0","-1"
"43762","Casa de Postas",,"casa-de-postas",,"ES","11149","0","0","36.29343","-6.07415","0","-1"
"43763","Casa Grande",,"casa-grande",,"ES","11596","0","0","36.60935","-6.14853","0","-1"
"43764","Casablanca",,"casablanca",,"ES","11400","0","0","36.84415","-6.12009","0","-1"
"43765","Casas de Porro",,"casas-de-porro",,"ES","11380","0","0","36.06008","-5.66495","0","-1"
"43766","Castellar de la Frontera",,"castellar-de-la-frontera",,"ES","11349","0","0","36.28621","-5.41994","0","-1"
"43767","Charco de los Hurones",,"charco-de-los-hurones",,"ES","11400","0","0","36.65842","-5.56472","0","-1"
"43768","Charco Dulce",,"charco-dulce",,"ES","11170","0","0","36.42330","-5.83543","0","-1"
"43769","Chiclana de la Frontera",,"chiclana-de-la-frontera",,"ES","11130","0","0","36.41915","-6.14941","0","-1"
"43770","Chipiona",,"chipiona",,"ES","11550","0","0","36.74080","-6.43587","0","-1"
"43771","Ciudad Jardín",,"ciudad-jardin",,"ES","11379","0","0","36.18236","-5.44476","0","-1"
"43772","Conil de la Frontera",,"conil-de-la-frontera",,"ES","11140","0","0","36.27675","-6.08844","0","-1"
"43773","Consorcio Bahia de Cadiz",,"consorcio-bahia-de-cadiz",,"ES","11519","0","0","36.52375","-6.22763","0","-1"
"43774","Cortijillos",,"cortijillos",,"ES","11379","0","0","36.27858","-5.33759","0","-1"
"43775","Cortijo la Mesa",,"cortijo-la-mesa",,"ES","11130","0","0","36.40231","-6.06375","0","-1"
"43776","Coto de Bornos",,"coto-de-bornos",,"ES","11649","0","0","36.85186","-5.69403","0","-1"
"43777","Coto de la Isleta",,"coto-de-la-isleta",,"ES","11500","0","0","36.58929","-6.21139","0","-1"
"43778","Cuartelillo",,"cuartelillo",,"ES","11596","0","0","36.63826","-6.13292","0","-1"
"43779","Cuartillo de la Paz",,"cuartillo-de-la-paz",,"ES","11593","0","0","36.68300","-6.06639","0","-1"
"43780","Cucarrete",,"cucarrete",,"ES","11179","0","0","36.32656","-5.86593","0","-1"
"43781","Dehesilla de Algar",,"dehesilla-de-algar",,"ES","11639","0","0","36.65533","-5.65742","0","-1"
"43782","Del Aguila",,"del-aguila",,"ES","11500","0","0","36.59939","-6.26644","0","-1"
"43783","Doña Blanca-Poblado",,"dona-blanca-poblado",,"ES","11500","0","0","36.62334","-6.16973","0","-1"
"43784","Doña Violeta",,"dona-violeta",,"ES","11139","0","0","36.37361","-6.17782","0","-1"
"43785","El Alamillo",,"el-alamillo",,"ES","11391","0","0","36.13921","-5.73302","0","-1"
"43786","El Almarchal",,"el-almarchal",,"ES","11393","0","0","36.14457","-5.80558","0","-1"
"43787","El Bercial",,"el-bercial",,"ES","11520","0","0","36.69802","-6.33146","0","-1"
"43788","El Bosque",,"el-bosque",,"ES","11670","0","0","36.75752","-5.50699","0","-1"
"43789","El Bugeo",,"el-bugeo",,"ES","11390","0","0","36.08378","-5.49742","0","-1"
"43790","El Cañal",,"el-canal",,"ES","11150","0","0","36.25097","-5.89137","0","-1"
"43791","El Chaparral",,"el-chaparral",,"ES","11391","0","0","36.08539","-5.73934","0","-1"
"43792","El Colorado",,"el-colorado",,"ES","11149","0","0","36.33570","-6.11242","0","-1"
"43793","El Concejo",,"el-concejo",,"ES","11630","0","0","36.72001","-5.80391","0","-1"
"43794","El Drago",,"el-drago",,"ES","11620","0","0","36.68494","-5.83077","0","-1"
"43795","El Gastor",,"el-gastor",,"ES","11687","0","0","36.85509","-5.32362","0","-1"
"43796","El Jaral",,"el-jaral",,"ES","11687","0","0","36.62724","-5.36503","0","-1"
"43797","El Lentiscal",,"el-lentiscal",,"ES","11391","0","0","36.85511","-5.32156","0","-1"
"43798","El Palmar",,"el-palmar",,"ES","11159","0","0","36.23474","-6.06816","0","-1"
"43799","El Parralejo",,"el-parralejo",,"ES","11150","0","0","36.23631","-5.94164","0","-1"
"43800","El Pelayo",,"el-pelayo",,"ES","11390","0","0","36.08378","-5.49742","0","-1"
"43801","El Picacho",,"el-picacho",,"ES","11180","0","0","36.46045","-5.72372","0","-1"
"43802","El Portal",,"el-portal",,"ES","11596","0","0","36.63674","-6.13215","0","-1"
"43803","El Puerto de Santa María",,"el-puerto-de-santa-maria",,"ES","11500","0","0","36.59695","-6.22753","0","-1"
"43804","El Pulido",,"el-pulido",,"ES","11391","0","0","36.10394","-5.74660","0","-1"
"43805","El Romero",,"el-romero",,"ES","11400","0","0","36.60560","-5.70974","0","-1"
"43806","El Secadero",,"el-secadero",,"ES","11349","0","0","36.33618","-5.31157","0","-1"
"43807","El Solete Alto",,"el-solete-alto",,"ES","11400","0","0","36.66555","-5.95850","0","-1"
"43808","El Soto",,"el-soto",,"ES","11150","0","0","36.24178","-5.91820","0","-1"
"43809","El Torno",,"el-torno",,"ES","11594","0","0","36.61856","-5.96835","0","-1"
"43810","El Trocadero",,"el-trocadero",,"ES","11519","0","0","36.52006","-6.22832","0","-1"
"43811","El Yugo",,"el-yugo",,"ES","11630","0","0","36.81994","-5.86434","0","-1"
"43812","Era de la Viña",,"era-de-la-vina",,"ES","11687","0","0","36.62724","-5.36503","0","-1"
"43813","Ermita de las Montañas",,"ermita-de-las-montanas",,"ES","11650","0","0","36.88567","-5.65920","0","-1"
"43814","Espera",,"espera",,"ES","11648","0","0","36.87319","-5.80621","0","-1"
"43815","Estella del Marques",,"estella-del-marques",,"ES","11593","0","0","36.68402","-6.07545","0","-1"
"43816","Facinas",,"facinas",,"ES","11391","0","0","36.14078","-5.69890","0","-1"
"43817","Ferrea de los Barrios",,"ferrea-de-los-barrios",,"ES","11379","0","0","36.21374","-5.43206","0","-1"
"43818","Ferrea de San Roque",,"ferrea-de-san-roque",,"ES","11368","0","0","36.18802","-5.43739","0","-1"
"43819","Fuensanta",,"fuensanta",,"ES","11630","0","0","36.76616","-5.66844","0","-1"
"43820","Fuente Alta",,"fuente-alta",,"ES","11680","0","0","36.88340","-5.39480","0","-1"
"43821","Fuente Amarga",,"fuente-amarga",,"ES","11130","0","0","36.38661","-6.10456","0","-1"
"43822","Fuente del Gallo",,"fuente-del-gallo",,"ES","11149","0","0","36.29278","-6.10979","0","-1"
"43823","Fuente del Rey",,"fuente-del-rey",,"ES","11400","0","0","36.54470","-5.98795","0","-1"
"43824","Fuentebravia",,"fuentebravia",,"ES","11500","0","0","36.61315","-6.28422","0","-1"
"43825","Gaidovar",,"gaidovar",,"ES","11610","0","0","36.75836","-5.36607","0","-1"
"43826","Garrapiles",,"garrapiles",,"ES","11570","0","0","36.65504","-5.94289","0","-1"
"43827","Grazalema",,"grazalema",,"ES","11610","0","0","36.75836","-5.36607","0","-1"
"43828","Guadacorte",,"guadacorte",,"ES","11379","0","0","36.21238","-5.41179","0","-1"
"43829","Guadalcacin",,"guadalcacin",,"ES","11591","0","0","36.71259","-6.09131","0","-1"
"43830","Guadarranque",,"guadarranque",,"ES","11369","0","0","36.17618","-5.42643","0","-1"
"43831","Guadiaro",,"guadiaro",,"ES","11311","0","0","36.30029","-5.30221","0","-1"
"43832","Hiper Continente",,"hiper-continente",,"ES","11379","0","0","36.21238","-5.41179","0","-1"
"43833","Huelvacar",,"huelvacar",,"ES","11170","0","0","36.42330","-5.83543","0","-1"
"43834","Huerta O'Farrel",,"huerta-o-farrel",,"ES","11138","0","0","36.45573","-6.14077","0","-1"
"43835","Industria Quimicas Urumea",,"industria-quimicas-urumea",,"ES","11638","0","0","36.71661","-5.74450","0","-1"
"43836","Isla de las Palomas",,"isla-de-las-palomas",,"ES","11380","0","0","36.00522","-5.60952","0","-1"
"43837","Jandilla",,"jandilla",,"ES","11158","0","0","36.27163","-5.89545","0","-1"
"43838","Jedula",,"jedula",,"ES","11620","0","0","36.72395","-5.93001","0","-1"
"43839","Jerez de la Frontera",,"jerez-de-la-frontera",,"ES","11401","0","0","36.67961","-6.13017","0","-1"
"43840","Jimena de la Frontera",,"jimena-de-la-frontera",,"ES","11330","0","0","36.43404","-5.45348","0","-1"
"43841","Jose Antonio",,"jose-antonio",,"ES","11579","0","0","36.67009","-5.90684","0","-1"
"43842","Juncales",,"juncales",,"ES","11680","0","0","36.91720","-5.42769","0","-1"
"43843","Junta de los Rios",,"junta-de-los-rios",,"ES","11620","0","0","36.69786","-5.85907","0","-1"
"43844","La Algaida",,"la-algaida",,"ES","11549","0","0","36.83933","-6.31691","0","-1"
"43845","La Barca de la Florida",,"la-barca-de-la-florida",,"ES","11570","0","0","36.64922","-5.93391","0","-1"
"43846","La Barca de Vejer",,"la-barca-de-vejer",,"ES","11158","0","0","36.25333","-5.95621","0","-1"
"43847","La Barrosa",,"la-barrosa",,"ES","11139","0","0","36.36943","-6.18105","0","-1"
"43848","La Cañada",,"la-canada",,"ES","11379","0","0","36.21238","-5.41179","0","-1"
"43849","La Canaleja",,"la-canaleja",,"ES","11170","0","0","36.45052","-5.92190","0","-1"
"43850","La Cierva",,"la-cierva",,"ES","11650","0","0","36.91001","-5.67657","0","-1"
"43851","La Costa",,"la-costa",,"ES","11380","0","0","36.46883","-5.46901","0","-1"
"43852","La Fontanilla",,"la-fontanilla",,"ES","11149","0","0","36.28056","-6.09907","0","-1"
"43853","La Garrapata",,"la-garrapata",,"ES","11630","0","0","36.75577","-5.83466","0","-1"
"43854","La Gloria",,"la-gloria",,"ES","11391","0","0","36.21388","-5.71720","0","-1"
"43855","La Herradura",,"la-herradura",,"ES","11339","0","0","36.41292","-5.38082","0","-1"
"43856","La Herrumbrosa",,"la-herrumbrosa",,"ES","11391","0","0","36.21388","-5.71720","0","-1"
"43857","La Ina",,"la-ina",,"ES","11595","0","0","36.63619","-6.03012","0","-1"
"43858","La Jara",,"la-jara",,"ES","11540","0","0","36.76146","-6.39626","0","-1"
"43859","La Jarda",,"la-jarda",,"ES","11400","0","0","36.59897","-5.57726","0","-1"
"43860","La Línea de la Concepción",,"la-linea-de-la-concepcion",,"ES","11300","0","0","36.16118","-5.34826","0","-1"
"43861","La Misericordia",,"la-misericordia",,"ES","11620","0","0","36.70373","-5.86363","0","-1"
"43862","La Muela de Algodonales",,"la-muela-de-algodonales",,"ES","11689","0","0","36.93047","-5.41155","0","-1"
"43863","La Muela de Vejer",,"la-muela-de-vejer",,"ES","11150","0","0","36.27117","-5.98653","0","-1"
"43864","La Nava y Lapa",,"la-nava-y-lapa",,"ES","11680","0","0","36.81931","-5.57953","0","-1"
"43865","La Oliva",,"la-oliva",,"ES","11150","0","0","36.21620","-5.93930","0","-1"
"43866","La Pedrosa",,"la-pedrosa",,"ES","11620","0","0","36.70816","-5.83465","0","-1"
"43867","La Peña",,"la-pena",,"ES","11380","0","0","36.81401","-5.74390","0","-1"
"43868","La Perdiz",,"la-perdiz",,"ES","11639","0","0","36.65533","-5.65742","0","-1"
"43869","La Puntilla",,"la-puntilla",,"ES","11500","0","0","36.58576","-6.24024","0","-1"
"43870","La Sierpe",,"la-sierpe",,"ES","11630","0","0","36.73853","-5.77758","0","-1"
"43871","La Soledad",,"la-soledad",,"ES","11139","0","0","36.86763","-5.54750","0","-1"
"43872","La Suara",,"la-suara",,"ES","11570","0","0","36.64506","-5.92521","0","-1"
"43873","La Zarzuela",,"la-zarzuela",,"ES","11393","0","0","36.16088","-5.81590","0","-1"
"43874","Las Abiertas",,"las-abiertas",,"ES","11400","0","0","36.69842","-6.09706","0","-1"
"43875","Las Algamitas",,"las-algamitas",,"ES","11170","0","0","36.31900","-5.63913","0","-1"
"43876","Las Brevas",,"las-brevas",,"ES","11520","0","0","36.66542","-6.35755","0","-1"
"43877","Las Caheruelas",,"las-caheruelas",,"ES","11391","0","0","36.10640","-5.60364","0","-1"
"43878","Las Canteras",,"las-canteras",,"ES","11510","0","0","36.52870","-6.19293","0","-1"
"43879","Las Casas",,"las-casas",,"ES","11688","0","0","36.84678","-5.46638","0","-1"
"43880","Las Lomas",,"las-lomas",,"ES","11179","0","0","36.29719","-5.87745","0","-1"
"43881","Las Meloneras",,"las-meloneras",,"ES","11520","0","0","36.66542","-6.35755","0","-1"
"43882","Las Piñas",,"las-pinas",,"ES","11391","0","0","36.10142","-5.69561","0","-1"
"43883","Las Redes",,"las-redes",,"ES","11500","0","0","36.59899","-6.27410","0","-1"
"43884","Las Tablas",,"las-tablas",,"ES","11400","0","0","36.70632","-6.21539","0","-1"
"43885","Los Álamos",,"los-alamos",,"ES","11379","0","0","36.21238","-5.41179","0","-1"
"43886","Los Alburejos",,"los-alburejos",,"ES","11170","0","0","36.45598","-5.85280","0","-1"
"43887","Los Ángeles",,"los-angeles",,"ES","11339","0","0","36.42027","-5.43475","0","-1"
"43888","Los Badalejos",,"los-badalejos",,"ES","11179","0","0","36.40021","-5.97109","0","-1"
"43889","Los Barrancos",,"los-barrancos",,"ES","11630","0","0","36.77438","-5.74485","0","-1"
"43890","Los Barrios",,"los-barrios",,"ES","11370","0","0","36.18539","-5.49275","0","-1"
"43891","Los Caños de Meca",,"los-canos-de-meca",,"ES","11159","0","0","36.18485","-6.00806","0","-1"
"43892","Los Hardales",,"los-hardales",,"ES","11170","0","0","36.42330","-5.83543","0","-1"
"43893","Los Isletes",,"los-isletes",,"ES","11400","0","0","36.58626","-5.86977","0","-1"
"43894","Los Libreros",,"los-libreros",,"ES","11158","0","0","36.28340","-5.92559","0","-1"
"43895","Los Naveros",,"los-naveros",,"ES","11158","0","0","36.35808","-5.97839","0","-1"
"43896","Los Repastaderos",,"los-repastaderos",,"ES","11400","0","0","36.63732","-6.07648","0","-1"
"43897","Los Romerales",,"los-romerales",,"ES","11400","0","0","36.66555","-5.95850","0","-1"
"43898","Los Zorrillos",,"los-zorrillos",,"ES","11380","0","0","36.46883","-5.46901","0","-1"
"43899","Madrigueras",,"madrigueras",,"ES","11680","0","0","36.81931","-5.57953","0","-1"
"43900","Majadales",,"majadales",,"ES","11620","0","0","36.70373","-5.86363","0","-1"
"43901","Malcocinado",,"malcocinado",,"ES","11179","0","0","36.35859","-5.86788","0","-1"
"43902","Manzanete",,"manzanete",,"ES","11150","0","0","36.22691","-5.89242","0","-1"
"43903","Marchenilla",,"marchenilla",,"ES","11339","0","0","36.38705","-5.42820","0","-1"
"43904","Medina Sidonia",,"medina-sidonia",,"ES","11170","0","0","36.46768","-5.92789","0","-1"
"43905","Mesas de Asta",,"mesas-de-asta",,"ES","11590","0","0","36.78793","-6.17246","0","-1"
"43906","Mesas de Santa Rosa",,"mesas-de-santa-rosa",,"ES","11400","0","0","36.72504","-6.11245","0","-1"
"43907","Mesas de Santiago",,"mesas-de-santiago",,"ES","11592","0","0","36.76000","-6.03270","0","-1"
"43908","Mesas del Corral",,"mesas-del-corral",,"ES","11570","0","0","36.64462","-5.92438","0","-1"
"43909","Miraflores",,"miraflores",,"ES","11369","0","0","36.19098","-5.42492","0","-1"
"43910","Molino Carrizales",,"molino-carrizales",,"ES","11391","0","0","36.21388","-5.71720","0","-1"
"43911","Montealegre",,"montealegre",,"ES","11400","0","0","36.66555","-5.95850","0","-1"
"43912","Montecote",,"montecote",,"ES","11159","0","0","36.20702","-6.03851","0","-1"
"43913","Montenegral Alto",,"montenegral-alto",,"ES","11349","0","0","36.32583","-5.35734","0","-1"
"43914","Nueva Jarilla",,"nueva-jarilla",,"ES","11592","0","0","36.76000","-6.03270","0","-1"
"43915","Olvera",,"olvera",,"ES","11690","0","0","36.93525","-5.26769","0","-1"
"43916","Pago del Humo",,"pago-del-humo",,"ES","11130","0","0","36.36490","-6.07177","0","-1"
"43917","Palmones",,"palmones",,"ES","11379","0","0","36.17485","-5.43273","0","-1"
"43918","Paloma Baja",,"paloma-baja",,"ES","11380","0","0","36.06560","-5.72606","0","-1"
"43919","Paterna de Rivera",,"paterna-de-rivera",,"ES","11178","0","0","36.52333","-5.86605","0","-1"
"43920","Pedro Valiente",,"pedro-valiente",,"ES","11380","0","0","36.04285","-5.62508","0","-1"
"43921","Pinar de los Franceses",,"pinar-de-los-franceses",,"ES","11138","0","0","36.45544","-6.13699","0","-1"
"43922","Poligono Industrial",,"poligono-industrial",,"ES","11500","0","0","36.59776","-6.20720","0","-1"
"43923","Poligono Industrial Nuevo",,"poligono-industrial-nuevo",,"ES","11379","0","0","36.21238","-5.41179","0","-1"
"43924","Poligono Tres Caminos",,"poligono-tres-caminos",,"ES","11100","0","0","36.46564","-6.19662","0","-1"
"43925","Portalillo",,"portalillo",,"ES","11596","0","0","36.63326","-6.13545","0","-1"
"43926","Pozo Amargo",,"pozo-amargo",,"ES","11659","0","0","37.01917","-5.42825","0","-1"
"43927","Prado del Rey",,"prado-del-rey",,"ES","11660","0","0","36.78969","-5.55554","0","-1"
"43928","Presa de Arcos",,"presa-de-arcos",,"ES","11638","0","0","36.71661","-5.74450","0","-1"
"43929","Pueblo Nuevo de Castellar",,"pueblo-nuevo-de-castellar",,"ES","11350","0","0","36.28621","-5.41994","0","-1"
"43930","Puente de la Guareña",,"puente-de-la-guarena",,"ES","11570","0","0","36.67047","-5.97943","0","-1"
"43931","Puente Mayorga",,"puente-mayorga",,"ES","11313","0","0","36.18183","-5.38564","0","-1"
"43932","Puerto de Santa Teresa",,"puerto-de-santa-teresa",,"ES","11139","0","0","36.86763","-5.54750","0","-1"
"43933","Puerto Real",,"puerto-real",,"ES","11510","0","0","36.52912","-6.19190","0","-1"
"43934","Puerto Serrano",,"puerto-serrano",,"ES","11659","0","0","36.92159","-5.54562","0","-1"
"43935","Puertollano",,"puertollano",,"ES","11380","0","0","38.68174","-4.09021","0","-1"
"43936","Realillo",,"realillo",,"ES","11391","0","0","36.42683","-6.13803","0","-1"
"43937","Residencia 'El Burgo'",,"residencia--el-burgo-",,"ES","11315","0","0","36.20532","-5.33770","0","-1"
"43938","Ribera de la Oliva",,"ribera-de-la-oliva",,"ES","11150","0","0","36.21533","-5.93982","0","-1"
"43939","Rincones",,"rincones",,"ES","11520","0","0","36.68124","-6.38300","0","-1"
"43940","Río San Pedro",,"rio-san-pedro",,"ES","11519","0","0","36.52744","-6.22693","0","-1"
"43941","Roche",,"roche",,"ES","11149","0","0","36.31996","-6.14597","0","-1"
"43942","Rota",,"rota",,"ES","11520","0","0","36.61698","-6.35820","0","-1"
"43943","Rota Naval",,"rota-naval",,"ES","11530","0","0","36.62226","-6.29163","0","-1"
"43944","Sambana",,"sambana",,"ES","11340","0","0","36.39825","-5.38243","0","-1"
"43945","San Ambrosio",,"san-ambrosio",,"ES","11150","0","0","36.21482","-6.00266","0","-1"
"43946","San Enrique de Guadiaro",,"san-enrique-de-guadiaro",,"ES","11312","0","0","36.30479","-5.29257","0","-1"
"43947","San Fernando",,"san-fernando",,"ES","11100","0","0","36.46564","-6.19662","0","-1"
"43948","San Fernando Naval",,"san-fernando-naval",,"ES","11110","0","0","36.47958","-6.19228","0","-1"
"43949","San Ignacio",,"san-ignacio",,"ES","11500","0","0","36.51222","-6.27895","0","-1"
"43950","San Isidro de Guadalete",,"san-isidro-de-guadalete",,"ES","11594","0","0","36.61917","-5.97112","0","-1"
"43951","San José",,"san-jose",,"ES","11597","0","0","36.60554","-5.79895","0","-1"
"43952","San Jose del Valle",,"san-jose-del-valle",,"ES","11580","0","0","36.60554","-5.79895","0","-1"
"43953","San Jose y las Flores",,"san-jose-y-las-flores",,"ES","11405","0","0","36.52274","-5.86768","0","-1"
"43954","San Juan del Marquesado",,"san-juan-del-marquesado",,"ES","11138","0","0","36.45559","-6.13888","0","-1"
"43955","San Martin del Tesorillo",,"san-martin-del-tesorillo",,"ES","11340","0","0","36.34220","-5.32008","0","-1"
"43956","San Pablo de Buceite",,"san-pablo-de-buceite",,"ES","11320","0","0","36.46595","-5.41352","0","-1"
"43957","San Roque",,"san-roque",,"ES","11360","0","0","36.20975","-5.38457","0","-1"
"43958","Sanlúcar de Barrameda",,"sanlucar-de-barrameda",,"ES","11540","0","0","36.77882","-6.35420","0","-1"
"43959","Santa Cecilia",,"santa-cecilia",,"ES","11620","0","0","36.70373","-5.86363","0","-1"
"43960","Santa Lucía",,"santa-lucia",,"ES","11158","0","0","36.27095","-5.97731","0","-1"
"43961","Santa Margarita",,"santa-margarita",,"ES","11315","0","0","36.20206","-5.33655","0","-1"
"43962","Santi Petri",,"santi-petri",,"ES","11139","0","0","36.50000","-6.20000","0","-1"
"43963","Santiscal",,"santiscal",,"ES","11638","0","0","36.71661","-5.74450","0","-1"
"43964","Santo Ángel",,"santo-angel",,"ES","11596","0","0","36.52914","-6.19359","0","-1"
"43965","Santuario Nuestra Señora de la Luz",,"santuario-nuestra-senora-de-la-luz",,"ES","11380","0","0","36.46883","-5.46901","0","-1"
"43966","Serrano",,"serrano",,"ES","11500","0","0","36.63106","-6.23488","0","-1"
"43967","Setenil de las Bodegas",,"setenil-de-las-bodegas",,"ES","11692","0","0","36.86406","-5.18141","0","-1"
"43968","Sierra de Retín",,"sierra-de-retin",,"ES","11160","0","0","36.13423","-5.84183","0","-1"
"43969","Sierra San Cristóbal",,"sierra-san-cristobal",,"ES","11500","0","0","36.63333","-6.16667","0","-1"
"43970","Sotogrande",,"sotogrande",,"ES","11310","0","0","36.28800","-5.27620","0","-1"
"43971","Tahivilla",,"tahivilla",,"ES","11392","0","0","36.18484","-5.75645","0","-1"
"43972","Taraguilla",,"taraguilla",,"ES","11369","0","0","36.20579","-5.42341","0","-1"
"43973","Tarifa",,"tarifa",,"ES","11380","0","0","36.01271","-5.60295","0","-1"
"43974","Toronjil",,"toronjil",,"ES","11630","0","0","36.79413","-5.78506","0","-1"
"43975","Torre Alháquime",,"torre-alhaquime",,"ES","11691","0","0","36.91554","-5.23474","0","-1"
"43976","Torre Melgarejo",,"torre-melgarejo",,"ES","11592","0","0","36.76000","-6.03270","0","-1"
"43977","Torrecera",,"torrecera",,"ES","11595","0","0","36.60962","-5.94364","0","-1"
"43978","Torreguadiaro",,"torreguadiaro",,"ES","11312","0","0","36.29435","-5.27539","0","-1"
"43979","Trebujena",,"trebujena",,"ES","11560","0","0","36.86952","-6.17670","0","-1"
"43980","Ubrique",,"ubrique",,"ES","11600","0","0","36.67771","-5.44656","0","-1"
"43981","Valdelagrana",,"valdelagrana",,"ES","11500","0","0","36.57757","-6.22617","0","-1"
"43982","Valdevaqueros",,"valdevaqueros",,"ES","11380","0","0","36.06839","-5.68942","0","-1"
"43983","Valle San Francisco",,"valle-san-francisco",,"ES","11500","0","0","36.60836","-5.80240","0","-1"
"43984","Vallejas",,"vallejas",,"ES","11630","0","0","36.76044","-5.76508","0","-1"
"43985","Vega de los Molinos",,"vega-de-los-molinos",,"ES","11620","0","0","36.70373","-5.86363","0","-1"
"43986","Vejer de la Frontera",,"vejer-de-la-frontera",,"ES","11150","0","0","36.25331","-5.96286","0","-1"
"43987","Venta Brigadier",,"venta-brigadier",,"ES","11638","0","0","36.71661","-5.74450","0","-1"
"43988","Venta Cordobes",,"venta-cordobes",,"ES","11638","0","0","36.71661","-5.74450","0","-1"
"43989","Venta de la Perdiz",,"venta-de-la-perdiz",,"ES","11638","0","0","36.68430","-5.70713","0","-1"
"43990","Venta de San Miguel",,"venta-de-san-miguel",,"ES","11580","0","0","36.74139","-5.79843","0","-1"
"43991","Venta Leches",,"venta-leches",,"ES","11692","0","0","36.86406","-5.18141","0","-1"
"43992","Venta Pajuelo",,"venta-pajuelo",,"ES","11638","0","0","36.74893","-5.78188","0","-1"
"43993","Venta Revertito",,"venta-revertito",,"ES","11638","0","0","36.71661","-5.74450","0","-1"
"43994","Ventas Nuevas",,"ventas-nuevas",,"ES","11687","0","0","36.82597","-5.35246","0","-1"
"43995","Villaluenga del Rosario",,"villaluenga-del-rosario",,"ES","11611","0","0","36.69587","-5.38814","0","-1"
"43996","Villamartín",,"villamartin",,"ES","11650","0","0","36.86132","-5.64183","0","-1"
"43997","Villasanta",,"villasanta",,"ES","11139","0","0","36.86763","-5.54750","0","-1"
"43998","Vistahermosa",,"vistahermosa",,"ES","11500","0","0","36.58556","-6.26743","0","-1"
"43999","Zabal Alto",,"zabal-alto",,"ES","11315","0","0","36.20225","-5.33624","0","-1"
"44000","Zabal Bajo",,"zabal-bajo",,"ES","11315","0","0","36.19937","-5.33445","0","-1"
"44001","Zahara de la Sierra",,"zahara-de-la-sierra",,"ES","11688","0","0","36.84053","-5.39055","0","-1"
"44002","Zahara de los Atunes",,"zahara-de-los-atunes",,"ES","11393","0","0","36.13678","-5.84658","0","-1"
"44003","Zahora",,"zahora",,"ES","11159","0","0","36.20148","-6.03930","0","-1"
"44004","Abejorreras",,"abejorreras",,"ES","14005","0","0","38.00188","-4.83186","0","-1"
"44005","Adamuz",,"adamuz",,"ES","14430","0","0","38.02736","-4.52487","0","-1"
"44006","Aguilar de la Frontera",,"aguilar-de-la-frontera",,"ES","14920","0","0","37.51502","-4.65606","0","-1"
"44007","Aguilarejo Alto y Bajo",,"aguilarejo-alto-y-bajo",,"ES","14005","0","0","38.00188","-4.83186","0","-1"
"44008","Aladid",,"aladid",,"ES","14850","0","0","37.71086","-4.35898","0","-1"
"44009","Alameda del Obispo",,"alameda-del-obispo",,"ES","14005","0","0","37.84957","-4.86187","0","-1"
"44010","Alarconas y Antorchas",,"alarconas-y-antorchas",,"ES","14978","0","0","37.23632","-4.37382","0","-1"
"44011","Albendín",,"albendin",,"ES","14859","0","0","37.66888","-4.23839","0","-1"
"44012","Alcaracejos",,"alcaracejos",,"ES","14480","0","0","38.38823","-4.96768","0","-1"
"44013","Alcolea",,"alcolea",,"ES","14610","0","0","37.93218","-4.67298","0","-1"
"44014","Alcornocal",,"alcornocal",,"ES","14249","0","0","38.18149","-5.32952","0","-1"
"44015","Aldea Quintana",,"aldea-quintana",,"ES","14191","0","0","37.71182","-4.86706","0","-1"
"44016","Algallarin",,"algallarin",,"ES","14439","0","0","37.99996","-4.45530","0","-1"
"44017","Algar",,"algar",,"ES","14811","0","0","37.35720","-4.22080","0","-1"
"44018","Algarbes",,"algarbes",,"ES","14100","0","0","37.71202","-4.90011","0","-1"
"44019","Almarja",,"almarja",,"ES","14740","0","0","37.99026","-5.16169","0","-1"
"44020","Almedinilla",,"almedinilla",,"ES","14812","0","0","37.43900","-4.09120","0","-1"
"44021","Almodóvar del Río",,"almodovar-del-rio",,"ES","14720","0","0","37.80958","-5.01996","0","-1"
"44022","Anjaron",,"anjaron",,"ES","14900","0","0","37.51312","-4.78107","0","-1"
"44023","Añora",,"anora",,"ES","14450","0","0","38.41099","-4.89746","0","-1"
"44024","Argallón",,"argallon",,"ES","14298","0","0","38.20239","-5.48536","0","-1"
"44025","Arriel",,"arriel",,"ES","14700","0","0","37.69092","-5.23387","0","-1"
"44026","Arroyo de Priego",,"arroyo-de-priego",,"ES","14979","0","0","37.27774","-4.28989","0","-1"
"44027","Arroyo del Cerezo",,"arroyo-del-cerezo",,"ES","14978","0","0","37.22139","-4.30742","0","-1"
"44028","Arroyo Tijeras",,"arroyo-tijeras",,"ES","14950","0","0","37.38077","-4.35639","0","-1"
"44029","Arroyuelos",,"arroyuelos",,"ES","14850","0","0","37.69079","-4.42021","0","-1"
"44030","Atalayuela",,"atalayuela",,"ES","14820","0","0","38.28075","-4.67852","0","-1"
"44031","Azores",,"azores",,"ES","14815","0","0","37.89354","-4.80076","0","-1"
"44032","Azuel",,"azuel",,"ES","14447","0","0","38.32600","-4.32881","0","-1"
"44033","Baena",,"baena",,"ES","14850","0","0","37.61468","-4.32670","0","-1"
"44034","Baldio",,"baldio",,"ES","14700","0","0","37.74943","-4.96502","0","-1"
"44035","Barriada del Angel",,"barriada-del-angel",,"ES","14610","0","0","37.92568","-4.65527","0","-1"
"44036","Barriada Estación",,"barriada-estacion",,"ES","14700","0","0","37.72326","-5.17367","0","-1"
"44037","Barrio Parque",,"barrio-parque",,"ES","14709","0","0","37.70343","-5.28351","0","-1"
"44038","Barrio San Vicente",,"barrio-san-vicente",,"ES","14130","0","0","37.55921","-4.84674","0","-1"
"44039","Belalcázar",,"belalcazar",,"ES","14280","0","0","38.57843","-5.16712","0","-1"
"44040","Bélmez",,"belmez",,"ES","14240","0","0","38.27234","-5.20875","0","-1"
"44041","Bembezar del Caudillo",,"bembezar-del-caudillo",,"ES","14709","0","0","37.79514","-5.23856","0","-1"
"44042","Benamejí",,"benameji",,"ES","14910","0","0","37.26732","-4.54042","0","-1"
"44043","Bernabe",,"bernabe",,"ES","14810","0","0","37.89891","-4.77813","0","-1"
"44044","Bocas de Riguelo",,"bocas-de-riguelo",,"ES","14512","0","0","37.37837","-4.76477","0","-1"
"44045","Brácana",,"bracana",,"ES","14813","0","0","37.41614","-4.05640","0","-1"
"44046","Brimz",,"brimz",,"ES","14330","0","0","38.02500","-4.83750","0","-1"
"44047","Bujalance",,"bujalance",,"ES","14650","0","0","37.89657","-4.38359","0","-1"
"44048","Burbunera",,"burbunera",,"ES","14950","0","0","37.36908","-4.32488","0","-1"
"44049","Cabra",,"cabra",,"ES","14940","0","0","37.47437","-4.42593","0","-1"
"44050","Cachiporro",,"cachiporro",,"ES","14280","0","0","38.60651","-5.28672","0","-1"
"44051","Camino Carbonell",,"camino-carbonell",,"ES","14010","0","0","37.88043","-4.74734","0","-1"
"44052","Camino Lope Garcia",,"camino-lope-garcia",,"ES","14010","0","0","35.43708","-7.40746","0","-1"
"44053","Campiña",,"campina",,"ES","14600","0","0","37.75000","-4.75000","0","-1"
"44054","Campiñuela Baja",,"campinuela-baja",,"ES","14014","0","0","37.90957","-4.74003","0","-1"
"44055","Campo Alegre",,"campo-alegre",,"ES","14192","0","0","37.92284","-4.88866","0","-1"
"44056","Campo de Aras",,"campo-de-aras",,"ES","14900","0","0","37.51312","-4.78107","0","-1"
"44057","Campo Nubes",,"campo-nubes",,"ES","14814","0","0","37.54423","-4.16292","0","-1"
"44058","Campullas",,"campullas",,"ES","14950","0","0","37.40349","-4.36026","0","-1"
"44059","Cañada de Zambra",,"canada-de-zambra",,"ES","14950","0","0","37.38880","-4.38706","0","-1"
"44060","Cañada del Gamo",,"canada-del-gamo",,"ES","14299","0","0","38.20466","-5.40565","0","-1"
"44061","Cañada del Rabadan",,"canada-del-rabadan",,"ES","14113","0","0","37.65365","-5.08278","0","-1"
"44062","Cañete de las Torres",,"canete-de-las-torres",,"ES","14660","0","0","37.86741","-4.31882","0","-1"
"44063","Cañuelo Bajo",,"canuelo-bajo",,"ES","14029","0","0","37.85574","-4.77400","0","-1"
"44064","Carcabuey",,"carcabuey",,"ES","14810","0","0","37.44359","-4.27344","0","-1"
"44065","Carchena",,"carchena",,"ES","14840","0","0","37.64008","-4.56818","0","-1"
"44066","Cardeña",,"cardena",,"ES","14445","0","0","38.27046","-4.32373","0","-1"
"44067","Cardenchosa",,"cardenchosa",,"ES","14299","0","0","38.14615","-5.34904","0","-1"
"44068","Casas de Huertas Arriel",,"casas-de-huertas-arriel",,"ES","14700","0","0","37.72326","-5.17367","0","-1"
"44069","Casas de Huertas El Carrascal",,"casas-de-huertas-el-carrascal",,"ES","14749","0","0","37.78760","-5.14966","0","-1"
"44070","Casas de Huertas El Pinzon",,"casas-de-huertas-el-pinzon",,"ES","14709","0","0","37.73136","-5.27894","0","-1"
"44071","Casas de Huertas El Rincon",,"casas-de-huertas-el-rincon",,"ES","14700","0","0","37.72326","-5.17367","0","-1"
"44072","Casas de Huertas la Granja",,"casas-de-huertas-la-granja",,"ES","14730","0","0","37.80244","-5.17697","0","-1"
"44073","Casas de Huertas Pedro Diaz",,"casas-de-huertas-pedro-diaz",,"ES","14700","0","0","37.72326","-5.17367","0","-1"
"44074","Casilla del Aire",,"casilla-del-aire",,"ES","14011","0","0","37.79773","-4.83917","0","-1"
"44075","Casillas de Velasco",,"casillas-de-velasco",,"ES","14600","0","0","38.05816","-4.45290","0","-1"
"44076","Castil de Campos",,"castil-de-campos",,"ES","14815","0","0","37.49174","-4.14286","0","-1"
"44077","Castillo de la Albaida",,"castillo-de-la-albaida",,"ES","14011","0","0","37.90204","-4.86581","0","-1"
"44078","Castro del Río",,"castro-del-rio",,"ES","14840","0","0","37.68864","-4.48158","0","-1"
"44079","Central Termica Puente Nuevo",,"central-termica-puente-nuevo",,"ES","14220","0","0","38.11070","-4.93669","0","-1"
"44080","Centro Militar",,"centro-militar",,"ES","14330","0","0","38.02500","-4.83750","0","-1"
"44081","Cerrillo Zambra",,"cerrillo-zambra",,"ES","14950","0","0","37.38499","-4.39093","0","-1"
"44082","Cerro del Humo",,"cerro-del-humo",,"ES","14550","0","0","37.62082","-4.72529","0","-1"
"44083","Cerro Miguelito",,"cerro-miguelito",,"ES","14210","0","0","38.13600","-4.90006","0","-1"
"44084","Cerro Muriano",,"cerro-muriano",,"ES","14350","0","0","38.00261","-4.77297","0","-1"
"44085","Céspedes",,"cespedes",,"ES","14709","0","0","37.75573","-5.25542","0","-1"
"44086","Chalets Acebuchal",,"chalets-acebuchal",,"ES","14700","0","0","37.72326","-5.17367","0","-1"
"44087","Chalets Baldio",,"chalets-baldio",,"ES","14700","0","0","37.72326","-5.17367","0","-1"
"44088","Chalets la Algaba",,"chalets-la-algaba",,"ES","14700","0","0","37.72326","-5.17367","0","-1"
"44089","Chaparral",,"chaparral",,"ES","14280","0","0","38.30437","-4.56646","0","-1"
"44090","Charco del Novillo",,"charco-del-novillo",,"ES","14640","0","0","38.06911","-4.27696","0","-1"
"44091","Chica Carlota",,"chica-carlota",,"ES","14111","0","0","37.69892","-4.95091","0","-1"
"44092","Cid Toledo",,"cid-toledo",,"ES","14930","0","0","37.47232","-4.57025","0","-1"
"44093","Cierzos y Cabreras",,"cierzos-y-cabreras",,"ES","14970","0","0","37.25726","-4.30842","0","-1"
"44094","Colina de la Virgen",,"colina-de-la-virgen",,"ES","14511","0","0","37.37780","-4.58618","0","-1"
"44095","Conquista",,"conquista",,"ES","14448","0","0","38.40844","-4.50097","0","-1"
"44096","Córdoba","Cordoue","cordoba","cordoue","ES","14001","0","0","37.88973","-4.77693","30000","-1"
"44097","Cordobilla",,"cordobilla",,"ES","14500","0","0","37.35772","-4.72572","0","-1"
"44098","Corona Algaida y Gata",,"corona-algaida-y-gata",,"ES","14978","0","0","37.22961","-4.33239","0","-1"
"44099","Cortijo Blanco",,"cortijo-blanco",,"ES","14550","0","0","37.39142","-4.76260","0","-1"
"44100","Cortijo El Rubio",,"cortijo-el-rubio",,"ES","14005","0","0","38.00188","-4.83186","0","-1"
"44101","Cortijo la Reina",,"cortijo-la-reina",,"ES","14820","0","0","37.39199","-4.76602","0","-1"
"44102","Cristo Marroqui",,"cristo-marroqui",,"ES","14900","0","0","37.51312","-4.78107","0","-1"
"44103","Cruz de Algaida",,"cruz-de-algaida",,"ES","14978","0","0","37.23350","-4.33621","0","-1"
"44104","Cuenca",,"cuenca",,"ES","14297","0","0","38.32335","-5.56001","0","-1"
"44105","Cuesta Blanca",,"cuesta-blanca",,"ES","14812","0","0","37.15033","-4.24039","0","-1"
"44106","De Obejo",,"de-obejo",,"ES","14320","0","0","38.13433","-4.80051","0","-1"
"44107","Dehesa de las Alcantarillas",,"dehesa-de-las-alcantarillas",,"ES","14280","0","0","38.57036","-5.35107","0","-1"
"44108","Dehesa de Potros",,"dehesa-de-potros",,"ES","14650","0","0","37.88667","-4.41686","0","-1"
"44109","Dehesa del Cañaveral",,"dehesa-del-canaveral",,"ES","14511","0","0","37.39928","-4.58849","0","-1"
"44110","Doña Manuela",,"dona-manuela",,"ES","14014","0","0","37.92619","-4.72406","0","-1"
"44111","Doña Mencia",,"dona-mencia",,"ES","14860","0","0","37.55457","-4.35760","0","-1"
"44112","Doña Rama",,"dona-rama",,"ES","14248","0","0","38.22182","-5.27530","0","-1"
"44113","Dos Torres",,"dos-torres",,"ES","14460","0","0","38.44524","-4.89493","0","-1"
"44114","El Adelantado",,"el-adelantado",,"ES","14978","0","0","37.22047","-4.34278","0","-1"
"44115","El Águila",,"el-aguila",,"ES","14740","0","0","38.30000","-5.01667","0","-1"
"44116","El Alcaide",,"el-alcaide",,"ES","14005","0","0","38.00188","-4.83186","0","-1"
"44117","El Alta",,"el-alta",,"ES","14740","0","0","37.99026","-5.16169","0","-1"
"44118","El Arenal",,"el-arenal",,"ES","14010","0","0","37.89967","-4.76206","0","-1"
"44119","El Arrecife",,"el-arrecife",,"ES","14191","0","0","37.70065","-4.89419","0","-1"
"44120","El Calonge",,"el-calonge",,"ES","14709","0","0","37.67168","-5.37543","0","-1"
"44121","El Cañuelo",,"el-canuelo",,"ES","14815","0","0","37.48896","-4.14635","0","-1"
"44122","El Carpio",,"el-carpio",,"ES","14620","0","0","37.94054","-4.49877","0","-1"
"44123","El Carrascal",,"el-carrascal",,"ES","14749","0","0","37.59519","-4.63575","0","-1"
"44124","El Castellar",,"el-castellar",,"ES","14817","0","0","37.41911","-4.13623","0","-1"
"44125","El Cerezo",,"el-cerezo",,"ES","14445","0","0","37.92939","-4.74912","0","-1"
"44126","El Entredicho",,"el-entredicho",,"ES","14249","0","0","38.21275","-5.20076","0","-1"
"44127","El Esparragal",,"el-esparragal",,"ES","14816","0","0","37.50225","-4.21439","0","-1"
"44128","El Fontanar",,"el-fontanar",,"ES","14547","0","0","37.55842","-4.80322","0","-1"
"44129","El Garabato",,"el-garabato",,"ES","14100","0","0","37.68212","-4.97689","0","-1"
"44130","El Guijo",,"el-guijo",,"ES","14413","0","0","38.49629","-4.78272","0","-1"
"44131","El Higueral",,"el-higueral",,"ES","14979","0","0","37.31693","-4.25581","0","-1"
"44132","El Higuerón",,"el-higueron",,"ES","14193","0","0","37.86231","-4.82488","0","-1"
"44133","El Hornillo",,"el-hornillo",,"ES","14011","0","0","37.89065","-4.77009","0","-1"
"44134","El Hoyo",,"el-hoyo",,"ES","14209","0","0","38.24637","-5.29363","0","-1"
"44135","El Jaramillo",,"el-jaramillo",,"ES","14979","0","0","37.29596","-4.28335","0","-1"
"44136","El Jardinito",,"el-jardinito",,"ES","14012","0","0","37.92545","-4.79609","0","-1"
"44137","El Martinete",,"el-martinete",,"ES","14940","0","0","37.50876","-4.65562","0","-1"
"44138","El Melgarejo",,"el-melgarejo",,"ES","14029","0","0","37.93409","-4.84107","0","-1"
"44139","El Nacimiento",,"el-nacimiento",,"ES","14950","0","0","37.39905","-4.38342","0","-1"
