"id","name","french_name","norm_name","norm_french_name","country_code","postal_code","zone1","zone2","lat","lng","note","url_unique"
"144384","Altino",,"altino",,"IT","66040","0","0","42.10241","14.33067","0","-1"
"144385","Selva",,"selva",,"IT","66040","0","0","42.07319","14.21554","0","-1"
"144386","Archi",,"archi",,"IT","66044","0","0","42.09042","14.38218","0","-1"
"144387","Piane d'archi",,"piane-d-archi",,"IT","66044","0","0","42.10615","14.37278","0","-1"
"144388","Ari",,"ari",,"IT","66010","0","0","42.29337","14.26403","0","-1"
"144389","San Pietro",,"san-pietro",,"IT","66010","0","0","42.28470","14.26704","0","-1"
"144390","Arielli",,"arielli",,"IT","66030","0","0","42.26317","14.30733","0","-1"
"144391","Atessa",,"atessa",,"IT","66041","0","0","42.06671","14.44606","0","-1"
"144392","Monte Marcone",,"monte-marcone",,"IT","66041","0","0","42.12548","14.43346","0","-1"
"144393","Piana la Fara",,"piana-la-fara",,"IT","66041","0","0","42.12283","14.26283","0","-1"
"144394","Piazzano",,"piazzano",,"IT","66041","0","0","42.14497","14.44067","0","-1"
"144395","Bomba",,"bomba",,"IT","66042","0","0","42.03531","14.36815","0","-1"
"144396","Borrello",,"borrello",,"IT","66040","0","0","41.92002","14.30531","0","-1"
"144397","Bucchianico",,"bucchianico",,"IT","66011","0","0","42.30586","14.18274","0","-1"
"144398","Colle Sant'Antonio",,"colle-sant-antonio",,"IT","66011","0","0","42.31976","14.13661","0","-1"
"144399","Canosa Sannita",,"canosa-sannita",,"IT","66010","0","0","42.29985","14.30632","0","-1"
"144400","Carpineto Sinello",,"carpineto-sinello",,"IT","66030","0","0","42.01072","14.50430","0","-1"
"144401","Carunchio",,"carunchio",,"IT","66050","0","0","41.91898","14.52498","0","-1"
"144402","Casacanditella",,"casacanditella",,"IT","66010","0","0","42.24844","14.20033","0","-1"
"144403","Semivicoli",,"semivicoli",,"IT","66010","0","0","42.27822","14.21592","0","-1"
"144404","Casalanguida",,"casalanguida",,"IT","66031","0","0","42.03688","14.50002","0","-1"
"144405","Casalbordino",,"casalbordino",,"IT","66021","0","0","42.15007","14.58446","0","-1"
"144406","Casalbordino stazione",,"casalbordino-stazione",,"IT","66021","0","0","42.15007","14.58446","0","-1"
"144407","Miracoli",,"miracoli",,"IT","66021","0","0","42.15937","14.61459","0","-1"
"144408","Casalincontrada",,"casalincontrada",,"IT","66012","0","0","42.29783","14.13602","0","-1"
"144409","Casoli",,"casoli",,"IT","66043","0","0","42.11798","14.29200","0","-1"
"144410","Selva piana",,"selva-piana",,"IT","66043","0","0","42.12218","14.30400","0","-1"
"144411","Castel Frentano",,"castel-frentano",,"IT","66032","0","0","42.19813","14.35628","0","-1"
"144412","Castelguidone",,"castelguidone",,"IT","66040","0","0","41.82378","14.52281","0","-1"
"144413","Castiglione Messer Marino",,"castiglione-messer-marino",,"IT","66033","0","0","41.86672","14.45088","0","-1"
"144414","Celenza sul Trigno",,"celenza-sul-trigno",,"IT","66050","0","0","41.87233","14.58043","0","-1"
"144415","Brecciarola",,"brecciarola",,"IT","66100","0","0","42.32278","14.09524","0","-1"
"144416","Chieti",,"chieti",,"IT","66100","0","0","42.35179","14.16715","0","-1"
"144417","Chieti Scalo",,"chieti-scalo",,"IT","66100","0","0","42.35696","14.13885","0","-1"
"144418","Tricalle",,"tricalle",,"IT","66100","0","0","42.35489","14.16935","0","-1"
"144419","Civitaluparella",,"civitaluparella",,"IT","66040","0","0","41.94512","14.30288","0","-1"
"144420","Civitella Messer Raimondo",,"civitella-messer-raimondo",,"IT","66010","0","0","42.08831","14.21624","0","-1"
"144421","Colledimacine",,"colledimacine",,"IT","66010","0","0","42.00583","14.20242","0","-1"
"144422","Colledimezzo",,"colledimezzo",,"IT","66040","0","0","41.98731","14.38732","0","-1"
"144423","Crecchio",,"crecchio",,"IT","66014","0","0","42.28998","14.32322","0","-1"
"144424","Villa Tucci",,"villa-tucci",,"IT","66014","0","0","42.30463","14.32211","0","-1"
"144425","Cupello",,"cupello",,"IT","66051","0","0","42.07179","14.67419","0","-1"
"144426","Dogliola",,"dogliola",,"IT","66050","0","0","41.94213","14.63599","0","-1"
"144427","Fallo",,"fallo",,"IT","66040","0","0","41.93879","14.32474","0","-1"
"144428","Fara Filiorum Petri",,"fara-filiorum-petri",,"IT","66010","0","0","42.24992","14.18603","0","-1"
"144429","Fara San Martino",,"fara-san-martino",,"IT","66015","0","0","42.09105","14.20397","0","-1"
"144430","Filetto",,"filetto",,"IT","66030","0","0","42.22922","14.24611","0","-1"
"144431","Fossacesia",,"fossacesia",,"IT","66022","0","0","42.24326","14.48036","0","-1"
"144432","Fossacesia Marina",,"fossacesia-marina",,"IT","66022","0","0","42.24814","14.51147","0","-1"
"144433","Scorciosa",,"scorciosa",,"IT","66022","0","0","42.22781","14.43568","0","-1"
"144434","Fraine",,"fraine",,"IT","66050","0","0","41.90641","14.48735","0","-1"
"144435","Francavilla al Mare",,"francavilla-al-mare",,"IT","66023","0","0","42.42152","14.28731","0","-1"
"144436","Francavilla al Mare rione foro",,"francavilla-al-mare-rione-foro",,"IT","66023","0","0","42.42152","14.28731","0","-1"
"144437","Fresagrandinaria",,"fresagrandinaria",,"IT","66050","0","0","41.97544","14.66280","0","-1"
"144438","Frisa",,"frisa",,"IT","66030","0","0","42.26391","14.37085","0","-1"
"144439","Guastameroli",,"guastameroli",,"IT","66030","0","0","42.27002","14.38502","0","-1"
"144440","Furci",,"furci",,"IT","66050","0","0","42.00998","14.58916","0","-1"
"144441","Gamberale",,"gamberale",,"IT","66040","0","0","41.90481","14.20934","0","-1"
"144442","Gessopalena",,"gessopalena",,"IT","66010","0","0","42.05767","14.27407","0","-1"
"144443","Gissi",,"gissi",,"IT","66052","0","0","42.02197","14.54616","0","-1"
"144444","Giuliano Teatino",,"giuliano-teatino",,"IT","66010","0","0","42.30431","14.28577","0","-1"
"144445","Caporosso",,"caporosso",,"IT","66016","0","0","42.20157","14.20752","0","-1"
"144446","Comino",,"comino",,"IT","66016","0","0","42.18626","14.19256","0","-1"
"144447","Guardiagrele",,"guardiagrele",,"IT","66016","0","0","42.19052","14.22243","0","-1"
"144448","Piano delle fonti",,"piano-delle-fonti",,"IT","66016","0","0","42.18924","14.26891","0","-1"
"144449","Villa San Vincenzo",,"villa-san-vincenzo",,"IT","66016","0","0","42.18558","14.35915","0","-1"
"144450","Guilmi",,"guilmi",,"IT","66050","0","0","41.99696","14.47636","0","-1"
"144451","Lama dei Peligni",,"lama-dei-peligni",,"IT","66010","0","0","42.04250","14.18720","0","-1"
"144452","Lanciano",,"lanciano",,"IT","66034","0","0","42.23317","14.39138","0","-1"
"144453","Madonna del Carmine",,"madonna-del-carmine",,"IT","66034","0","0","42.37682","14.18645","0","-1"
"144454","Nasuti",,"nasuti",,"IT","66034","0","0","42.22819","14.35511","0","-1"
"144455","Rizzacorno",,"rizzacorno",,"IT","66034","0","0","42.17344","14.39041","0","-1"
"144456","Sant'Amato",,"sant-amato",,"IT","66034","0","0","42.23809","14.35408","0","-1"
"144457","Villa Elce",,"villa-elce",,"IT","66034","0","0","42.18618","14.39608","0","-1"
"144458","Lentella",,"lentella",,"IT","66050","0","0","41.99717","14.67630","0","-1"
"144459","Lettopalena",,"lettopalena",,"IT","66010","0","0","42.00160","14.15965","0","-1"
"144460","Liscia",,"liscia",,"IT","66050","0","0","41.95429","14.55824","0","-1"
"144461","Miglianico",,"miglianico",,"IT","66010","0","0","42.35939","14.29250","0","-1"
"144462","Montazzoli",,"montazzoli",,"IT","66030","0","0","41.94776","14.42917","0","-1"
"144463","Buonanotte",,"buonanotte",,"IT","66040","0","0","41.98767","14.32502","0","-1"
"144464","Montebello sul Sangro",,"montebello-sul-sangro",,"IT","66040","0","0","41.98767","14.32502","0","-1"
"144465","Monteferrante",,"monteferrante",,"IT","66040","0","0","41.95590","14.38766","0","-1"
"144466","Montelapiano",,"montelapiano",,"IT","66040","0","0","41.96316","14.34262","0","-1"
"144467","Montenerodomo",,"montenerodomo",,"IT","66010","0","0","41.97707","14.25212","0","-1"
"144468","Monteodorisio",,"monteodorisio",,"IT","66050","0","0","42.08702","14.65328","0","-1"
"144469","Mozzagrogna",,"mozzagrogna",,"IT","66030","0","0","42.21160","14.44585","0","-1"
"144470","Villa Romagnoli",,"villa-romagnoli",,"IT","66030","0","0","42.21090","14.42372","0","-1"
"144471","Orsogna",,"orsogna",,"IT","66036","0","0","42.22002","14.28000","0","-1"
"144472","Ortona",,"ortona",,"IT","66026","0","0","42.35691","14.40521","0","-1"
"144473","Ortona Foro",,"ortona-foro",,"IT","66026","0","0","42.39641","14.33398","0","-1"
"144474","Ortona Porto",,"ortona-porto",,"IT","66026","0","0","42.35770","14.41077","0","-1"
"144475","Villa Caldari",,"villa-caldari",,"IT","66026","0","0","42.29344","14.36485","0","-1"
"144476","Villa Grande",,"villa-grande",,"IT","66026","0","0","42.32987","14.36565","0","-1"
"144477","Villa San Leonardo",,"villa-san-leonardo",,"IT","66026","0","0","42.31220","14.40220","0","-1"
"144478","Villa San Nicola",,"villa-san-nicola",,"IT","66026","0","0","42.35023","14.36145","0","-1"
"144479","Paglieta",,"paglieta",,"IT","66020","0","0","42.16407","14.49830","0","-1"
"144480","Sant'Egidio",,"sant-egidio",,"IT","66020","0","0","42.17808","14.49096","0","-1"
"144481","Palena",,"palena",,"IT","66017","0","0","41.98407","14.13878","0","-1"
"144482","Palmoli",,"palmoli",,"IT","66050","0","0","41.93943","14.58158","0","-1"
"144483","Palombaro",,"palombaro",,"IT","66010","0","0","42.12722","14.23037","0","-1"
"144484","Pennadomo",,"pennadomo",,"IT","66040","0","0","42.00596","14.32533","0","-1"
"144485","Pennapiedimonte",,"pennapiedimonte",,"IT","66010","0","0","42.15472","14.19481","0","-1"
"144486","Perano",,"perano",,"IT","66040","0","0","42.10424","14.39502","0","-1"
"144487","Pietraferrazzana",,"pietraferrazzana",,"IT","66040","0","0","41.96985","14.37502","0","-1"
"144488","Pizzoferrato",,"pizzoferrato",,"IT","66040","0","0","41.92252","14.23674","0","-1"
"144489","Poggiofiorito",,"poggiofiorito",,"IT","66030","0","0","42.25594","14.32330","0","-1"
"144490","Pollutri",,"pollutri",,"IT","66020","0","0","42.13920","14.59287","0","-1"
"144491","Pretoro",,"pretoro",,"IT","66010","0","0","42.21878","14.14283","0","-1"
"144492","Quadri",,"quadri",,"IT","66040","0","0","41.92594","14.28924","0","-1"
"144493","Rapino",,"rapino",,"IT","66010","0","0","42.21027","14.18635","0","-1"
"144494","Ripa Teatina",,"ripa-teatina",,"IT","66010","0","0","42.35970","14.23500","0","-1"
"144495","Rocca San Giovanni",,"rocca-san-giovanni",,"IT","66020","0","0","42.24704","14.46250","0","-1"
"144496","Roccamontepiano",,"roccamontepiano",,"IT","66010","0","0","42.24313","14.12865","0","-1"
"144497","San Rocco",,"san-rocco",,"IT","66010","0","0","42.32494","14.28284","0","-1"
"144498","Terranova",,"terranova",,"IT","66010","0","0","42.25973","14.13699","0","-1"
"144499","Roccascalegna",,"roccascalegna",,"IT","66040","0","0","42.06361","14.30783","0","-1"
"144500","Olmi",,"olmi",,"IT","66050","0","0","41.92005","14.48299","0","-1"
"144501","Roccaspinalveti",,"roccaspinalveti",,"IT","66050","0","0","41.93704","14.47033","0","-1"
"144502","Roio del Sangro",,"roio-del-sangro",,"IT","66040","0","0","41.91171","14.37266","0","-1"
"144503","Giuliopoli",,"giuliopoli",,"IT","66040","0","0","41.92220","14.35783","0","-1"
"144504","Rosello",,"rosello",,"IT","66040","0","0","41.90189","14.35080","0","-1"
"144505","San Buono",,"san-buono",,"IT","66050","0","0","41.98178","14.57071","0","-1"
"144506","San Giovanni Lipioni",,"san-giovanni-lipioni",,"IT","66050","0","0","41.84619","14.56112","0","-1"
"144507","Sambuceto",,"sambuceto",,"IT","66020","0","0","42.41893","14.18096","0","-1"
"144508","San Giovanni Teatino",,"san-giovanni-teatino",,"IT","66020","0","0","42.41022","14.20221","0","-1"
"144509","San Martino sulla Marrucina",,"san-martino-sulla-marrucina",,"IT","66010","0","0","42.22596","14.21413","0","-1"
"144510","San Salvo",,"san-salvo",,"IT","66050","0","0","42.04466","14.73102","0","-1"
"144511","San salvo Marina",,"san-salvo-marina",,"IT","66050","0","0","42.06781","14.77366","0","-1"
"144512","Marina di San Vito",,"marina-di-san-vito",,"IT","66038","0","0","42.30811","14.44529","0","-1"
"144513","San Vito Chietino",,"san-vito-chietino",,"IT","66038","0","0","42.29704","14.44548","0","-1"
"144514","Sant'Apollinare Chietino",,"sant-apollinare-chietino",,"IT","66038","0","0","42.29535","14.40667","0","-1"
"144515","Sant'Eusanio del Sangro",,"sant-eusanio-del-sangro",,"IT","66037","0","0","42.17002","14.32815","0","-1"
"144516","Santa Maria Imbaro",,"santa-maria-imbaro",,"IT","66030","0","0","42.21796","14.44930","0","-1"
"144517","San Giacomo di Scerni",,"san-giacomo-di-scerni",,"IT","66020","0","0","42.09989","14.58145","0","-1"
"144518","Scerni",,"scerni",,"IT","66020","0","0","42.10315","14.57017","0","-1"
"144519","Schiavi di Abruzzo",,"schiavi-di-abruzzo",,"IT","66045","0","0","41.81599","14.48468","0","-1"
"144520","Taverna di Schiavi di Abruzzo",,"taverna-di-schiavi-di-abruzzo",,"IT","66045","0","0","41.79316","14.47922","0","-1"
"144521","Taranta Peligna",,"taranta-peligna",,"IT","66018","0","0","42.01864","14.16939","0","-1"
"144522","Tollo",,"tollo",,"IT","66010","0","0","42.34891","14.31907","0","-1"
"144523","Torino di Sangro",,"torino-di-sangro",,"IT","66020","0","0","42.18924","14.54172","0","-1"
"144524","Torino di Sangro stazione",,"torino-di-sangro-stazione",,"IT","66020","0","0","42.18924","14.54172","0","-1"
"144525","San Giovanni",,"san-giovanni",,"IT","66046","0","0","41.96626","14.43907","0","-1"
"144526","Tornareccio",,"tornareccio",,"IT","66046","0","0","42.03924","14.41704","0","-1"
"144527","Guardiabruna",,"guardiabruna",,"IT","66050","0","0","41.85344","14.53219","0","-1"
"144528","Torrebruna",,"torrebruna",,"IT","66050","0","0","41.86934","14.54060","0","-1"
"144529","Castelferrato",,"castelferrato",,"IT","66010","0","0","42.37877","14.22332","0","-1"
"144530","Torrevecchia Teatina",,"torrevecchia-teatina",,"IT","66010","0","0","42.38371","14.21441","0","-1"
"144531","Fallascoso",,"fallascoso",,"IT","66019","0","0","42.00559","14.24273","0","-1"
"144532","Torricella Peligna",,"torricella-peligna",,"IT","66019","0","0","42.02476","14.25960","0","-1"
"144533","Treglio",,"treglio",,"IT","66030","0","0","42.26913","14.42609","0","-1"
"144534","Tufillo",,"tufillo",,"IT","66050","0","0","41.91828","14.62481","0","-1"
"144535","Vacri",,"vacri",,"IT","66010","0","0","42.29778","14.23267","0","-1"
"144536","Incoronata di Vasto",,"incoronata-di-vasto",,"IT","66054","0","0","42.14475","14.69832","0","-1"
"144537","Marina di Vasto",,"marina-di-vasto",,"IT","66054","0","0","42.09392","14.72603","0","-1"
"144538","San Lorenzo di Vasto",,"san-lorenzo-di-vasto",,"IT","66054","0","0","42.12449","14.67426","0","-1"
"144539","Vasto",,"vasto",,"IT","66054","0","0","42.11271","14.70962","0","-1"
"144540","Villa Santa Maria",,"villa-santa-maria",,"IT","66047","0","0","41.94873","14.34933","0","-1"
"144541","Villalfonsina",,"villalfonsina",,"IT","66020","0","0","42.16098","14.57106","0","-1"
"144542","Villamagna",,"villamagna",,"IT","66010","0","0","42.33002","14.23704","0","-1"
"144543","Acciano",,"acciano",,"IT","67020","0","0","42.17642","13.71691","0","-1"
"144544","Beffi",,"beffi",,"IT","67020","0","0","42.19306","13.68017","0","-1"
"144545","Roccapreturo",,"roccapreturo",,"IT","67020","0","0","42.19720","13.69844","0","-1"
"144546","Aielli",,"aielli",,"IT","67041","0","0","42.08189","13.59157","0","-1"
"144547","Aielli stazione",,"aielli-stazione",,"IT","67041","0","0","42.06381","13.58626","0","-1"
"144548","Alfedena",,"alfedena",,"IT","67030","0","0","41.73424","14.03253","0","-1"
"144549","Anversa degli Abruzzi",,"anversa-degli-abruzzi",,"IT","67030","0","0","41.99485","13.80485","0","-1"
"144550","Castrovalva",,"castrovalva",,"IT","67030","0","0","41.98354","13.81222","0","-1"
"144551","Ateleta",,"ateleta",,"IT","67030","0","0","41.85483","14.20136","0","-1"
"144552","Antrosano",,"antrosano",,"IT","67051","0","0","42.06959","13.40280","0","-1"
"144553","Avezzano",,"avezzano",,"IT","67051","0","0","42.02841","13.42562","0","-1"
"144554","Cese",,"cese",,"IT","67051","0","0","42.37486","13.28062","0","-1"
"144555","Paterno",,"paterno",,"IT","67051","0","0","42.53813","13.28439","0","-1"
"144556","San Pelino",,"san-pelino",,"IT","67051","0","0","42.05087","13.46138","0","-1"
"144557","Santuario di Pietracquaria",,"santuario-di-pietracquaria",,"IT","67051","0","0","42.03346","13.43555","0","-1"
"144558","Balsorano",,"balsorano",,"IT","67052","0","0","41.81096","13.56080","0","-1"
"144559","Balsorano Nuovo",,"balsorano-nuovo",,"IT","67052","0","0","41.81242","13.55876","0","-1"
"144560","Ridotti",,"ridotti",,"IT","67052","0","0","41.78827","13.60942","0","-1"
"144561","Barete",,"barete",,"IT","67010","0","0","42.44909","13.28323","0","-1"
"144562","Barisciano",,"barisciano",,"IT","67021","0","0","42.32548","13.59346","0","-1"
"144563","Picenze",,"picenze",,"IT","67021","0","0","42.32174","13.54204","0","-1"
"144564","Barrea",,"barrea",,"IT","67030","0","0","41.75525","13.99204","0","-1"
"144565","Bisegna",,"bisegna",,"IT","67050","0","0","41.92220","13.75861","0","-1"
"144566","San Sebastiano",,"san-sebastiano",,"IT","67050","0","0","41.94274","13.76049","0","-1"
"144567","Bugnara",,"bugnara",,"IT","67030","0","0","42.02220","13.85868","0","-1"
"144568","Torre dei Nolfi",,"torre-dei-nolfi",,"IT","67030","0","0","42.04503","13.87017","0","-1"
"144569","Cagnano Amiterno",,"cagnano-amiterno",,"IT","67012","0","0","42.45226","13.22479","0","-1"
"144570","San Giovanni",,"san-giovanni",,"IT","67012","0","0","42.29263","13.56951","0","-1"
"144571","Calascio",,"calascio",,"IT","67020","0","0","42.32657","13.69811","0","-1"
"144572","Campo di Giove",,"campo-di-giove",,"IT","67030","0","0","42.01119","14.03488","0","-1"
"144573","Campotosto",,"campotosto",,"IT","67013","0","0","42.55987","13.36785","0","-1"
"144574","Mascioni",,"mascioni",,"IT","67013","0","0","42.52776","13.34857","0","-1"
"144575","Ortolano",,"ortolano",,"IT","67013","0","0","42.51992","13.42489","0","-1"
"144576","Poggio Cancelli",,"poggio-cancelli",,"IT","67013","0","0","42.56237","13.32752","0","-1"
"144577","Canistro",,"canistro",,"IT","67050","0","0","41.94163","13.41344","0","-1"
"144578","Canistro inferiore",,"canistro-inferiore",,"IT","67050","0","0","41.94108","13.41288","0","-1"
"144579","Canistro superiore",,"canistro-superiore",,"IT","67050","0","0","41.94189","13.39696","0","-1"
"144580","Cansano",,"cansano",,"IT","67030","0","0","42.00548","14.01281","0","-1"
"144581","Capestrano",,"capestrano",,"IT","67022","0","0","42.26857","13.76612","0","-1"
"144582","Capistrello",,"capistrello",,"IT","67053","0","0","41.96573","13.38981","0","-1"
"144583","Corcumello",,"corcumello",,"IT","67053","0","0","42.00887","13.34738","0","-1"
"144584","Pescocanale",,"pescocanale",,"IT","67053","0","0","41.96573","13.38981","0","-1"
"144585","Capitignano",,"capitignano",,"IT","67014","0","0","42.52042","13.30088","0","-1"
"144586","Caporciano",,"caporciano",,"IT","67020","0","0","42.25114","13.67471","0","-1"
"144587","Cappadocia",,"cappadocia",,"IT","67060","0","0","42.00584","13.28009","0","-1"
"144588","Petrella Liri",,"petrella-liri",,"IT","67060","0","0","42.01762","13.28186","0","-1"
"144589","Verrecchie",,"verrecchie",,"IT","67060","0","0","42.03589","13.24831","0","-1"
"144590","Carapelle Calvisio",,"carapelle-calvisio",,"IT","67020","0","0","42.29970","13.68248","0","-1"
"144591","Carsoli",,"carsoli",,"IT","67061","0","0","42.09950","13.08694","0","-1"
"144592","Colli di Montebove",,"colli-di-montebove",,"IT","67061","0","0","42.09723","13.15824","0","-1"
"144593","Montesabinese",,"montesabinese",,"IT","67061","0","0","42.09298","13.11470","0","-1"
"144594","Pietrasecca",,"pietrasecca",,"IT","67061","0","0","42.13505","13.12889","0","-1"
"144595","Poggio Cinolfo",,"poggio-cinolfo",,"IT","67061","0","0","42.11209","13.05251","0","-1"
"144596","Tufo di Carsoli",,"tufo-di-carsoli",,"IT","67061","0","0","42.15646","13.10754","0","-1"
"144597","Villa Romana",,"villa-romana",,"IT","67061","0","0","42.08588","13.09773","0","-1"
"144598","Castel del Monte",,"castel-del-monte",,"IT","67023","0","0","42.36452","13.72579","0","-1"
"144599","Castel di Ieri",,"castel-di-ieri",,"IT","67020","0","0","42.11561","13.74273","0","-1"
"144600","Castel di Sangro",,"castel-di-sangro",,"IT","67031","0","0","41.78434","14.10826","0","-1"
"144601","Roccacinquemiglia",,"roccacinquemiglia",,"IT","67031","0","0","41.81183","14.12076","0","-1"
"144602","Castellafiume",,"castellafiume",,"IT","67050","0","0","41.98938","13.33432","0","-1"
"144603","Pagliara",,"pagliara",,"IT","67050","0","0","41.98938","13.33432","0","-1"
"144604","Castelvecchio Calvisio",,"castelvecchio-calvisio",,"IT","67020","0","0","42.31064","13.68846","0","-1"
"144605","Castelvecchio Subequo",,"castelvecchio-subequo",,"IT","67024","0","0","42.13059","13.73064","0","-1"
"144606","Celano",,"celano",,"IT","67043","0","0","42.08657","13.54080","0","-1"
"144607","Cerchio",,"cerchio",,"IT","67044","0","0","42.06468","13.60187","0","-1"
"144608","Civita d'Antino",,"civita-d-antino",,"IT","67050","0","0","41.88624","13.46987","0","-1"
"144609","Pero dei Santi",,"pero-dei-santi",,"IT","67050","0","0","41.88172","13.45470","0","-1"
"144610","Civitella Alfedena",,"civitella-alfedena",,"IT","67030","0","0","41.76643","13.94378","0","-1"
"144611","Civitella Roveto",,"civitella-roveto",,"IT","67054","0","0","41.91373","13.42745","0","-1"
"144612","Meta",,"meta",,"IT","67054","0","0","41.88877","13.40345","0","-1"
"144613","Cocullo",,"cocullo",,"IT","67030","0","0","42.03376","13.77481","0","-1"
"144614","Collarmele",,"collarmele",,"IT","67040","0","0","42.06039","13.62648","0","-1"
"144615","Collelongo",,"collelongo",,"IT","67050","0","0","41.88650","13.58444","0","-1"
"144616","Collepietro",,"collepietro",,"IT","67020","0","0","42.22106","13.77873","0","-1"
"144617","Corfinio",,"corfinio",,"IT","67030","0","0","42.12382","13.84216","0","-1"
"144618","Fagnano Alto",,"fagnano-alto",,"IT","67020","0","0","42.25405","13.57495","0","-1"
"144619","Fontecchio",,"fontecchio",,"IT","67020","0","0","42.23173","13.60511","0","-1"
"144620","Fossa",,"fossa",,"IT","67020","0","0","42.29577","13.48742","0","-1"
"144621","Gagliano Aterno",,"gagliano-aterno",,"IT","67020","0","0","42.12750","13.70094","0","-1"
"144622","Casali d'aschi",,"casali-d-aschi",,"IT","67055","0","0","41.96099","13.68303","0","-1"
"144623","Gioia dei Marsi",,"gioia-dei-marsi",,"IT","67055","0","0","41.95612","13.68411","0","-1"
"144624","Goriano Sicoli",,"goriano-sicoli",,"IT","67030","0","0","42.08189","13.77580","0","-1"
"144625","Introdacqua",,"introdacqua",,"IT","67030","0","0","42.00844","13.89922","0","-1"
"144626","Aragno",,"aragno",,"IT","67100","0","0","42.39573","13.45833","0","-1"
"144627","Arischia",,"arischia",,"IT","67100","0","0","42.41931","13.34024","0","-1"
"144628","Assergi",,"assergi",,"IT","67100","0","0","42.41672","13.50846","0","-1"
"144629","Bagno",,"bagno",,"IT","67100","0","0","42.30997","13.42481","0","-1"
"144630","Bazzano",,"bazzano",,"IT","67100","0","0","42.33832","13.45492","0","-1"
"144631","Camarda",,"camarda",,"IT","67100","0","0","42.39064","13.49451","0","-1"
"144632","Campo Imperatore",,"campo-imperatore",,"IT","67100","0","0","42.44174","13.57548","0","-1"
"144633","Colle di Roio",,"colle-di-roio",,"IT","67100","0","0","42.34225","13.34868","0","-1"
"144634","Collebrincioni",,"collebrincioni",,"IT","67100","0","0","42.39970","13.41720","0","-1"
"144635","Coppito",,"coppito",,"IT","67100","0","0","42.36644","13.34278","0","-1"
"144636","Forcella",,"forcella",,"IT","67100","0","0","41.75405","13.63758","0","-1"
"144637","L'Aquila",,"l-aquila",,"IT","67100","0","0","42.35070","13.39993","0","-1"
"144638","Monticchio",,"monticchio",,"IT","67100","0","0","42.32098","13.46463","0","-1"
"144639","Onna",,"onna",,"IT","67100","0","0","42.32939","13.48048","0","-1"
"144640","Paganica",,"paganica",,"IT","67100","0","0","42.35971","13.47036","0","-1"
"144641","Pagliare",,"pagliare",,"IT","67100","0","0","42.34992","13.31128","0","-1"
"144642","Pianola",,"pianola",,"IT","67100","0","0","42.32750","13.40674","0","-1"
"144643","Pile",,"pile",,"IT","67100","0","0","42.36232","13.36946","0","-1"
"144644","Poggio di Roio",,"poggio-di-roio",,"IT","67100","0","0","42.33235","13.37847","0","-1"
"144645","Preturo",,"preturo",,"IT","67100","0","0","42.37844","13.29767","0","-1"
"144646","Roio Piano",,"roio-piano",,"IT","67100","0","0","42.33175","13.35637","0","-1"
"144647","San Benedetto",,"san-benedetto",,"IT","67100","0","0","42.18453","13.77127","0","-1"
"144648","San Gregorio",,"san-gregorio",,"IT","67100","0","0","42.32733","13.49652","0","-1"
"144649","San Vittorino",,"san-vittorino",,"IT","67100","0","0","42.39703","13.31454","0","-1"
"144650","Santi",,"santi",,"IT","67100","0","0","42.40335","13.24119","0","-1"
"144651","Sassa",,"sassa",,"IT","67100","0","0","42.35250","13.30281","0","-1"
"144652","Tempera",,"tempera",,"IT","67100","0","0","42.36598","13.45737","0","-1"
"144653","Lecce nei Marsi",,"lecce-nei-marsi",,"IT","67050","0","0","41.93004","13.68213","0","-1"
"144654","Luco dei Marsi",,"luco-dei-marsi",,"IT","67056","0","0","41.95815","13.47454","0","-1"
"144655","Casamaina",,"casamaina",,"IT","67045","0","0","42.25934","13.39180","0","-1"
"144656","Lucoli",,"lucoli",,"IT","67045","0","0","42.29206","13.33891","0","-1"
"144657","Ville di Lucoli",,"ville-di-lucoli",,"IT","67045","0","0","42.30759","13.33065","0","-1"
"144658","Magliano de' Marsi",,"magliano-de--marsi",,"IT","67062","0","0","42.09250","13.36487","0","-1"
"144659","Marano dei Marsi",,"marano-dei-marsi",,"IT","67062","0","0","42.12380","13.27039","0","-1"
"144660","Rosciolo dei Marsi",,"rosciolo-dei-marsi",,"IT","67062","0","0","42.11809","13.33888","0","-1"
"144661","Albe",,"albe",,"IT","67050","0","0","42.07989","13.40898","0","-1"
"144662","Corona",,"corona",,"IT","67050","0","0","42.11093","13.38924","0","-1"
"144663","Forme",,"forme",,"IT","67050","0","0","42.11219","13.44337","0","-1"
"144664","Massa d'Albe",,"massa-d-albe",,"IT","67050","0","0","42.11184","13.38940","0","-1"
"144665","Molina Aterno",,"molina-aterno",,"IT","67020","0","0","42.15000","13.73643","0","-1"
"144666","Aringo",,"aringo",,"IT","67015","0","0","42.55604","13.26665","0","-1"
"144667","Cesaproba",,"cesaproba",,"IT","67015","0","0","42.49841","13.18680","0","-1"
"144668","Marana",,"marana",,"IT","67015","0","0","42.49439","13.22267","0","-1"
"144669","Montereale",,"montereale",,"IT","67015","0","0","42.52414","13.24505","0","-1"
"144670","San giovanni paganica",,"san-giovanni-paganica",,"IT","67015","0","0","42.50651","13.27579","0","-1"
"144671","Ville di Fano",,"ville-di-fano",,"IT","67015","0","0","42.53114","13.19525","0","-1"
"144672","Grancia",,"grancia",,"IT","67050","0","0","41.86147","13.43409","0","-1"
"144673","Morino",,"morino",,"IT","67050","0","0","41.86487","13.45705","0","-1"
"144674","Rendinara",,"rendinara",,"IT","67050","0","0","41.83641","13.46922","0","-1"
"144675","Civitaretenga",,"civitaretenga",,"IT","67020","0","0","42.24568","13.70571","0","-1"
"144676","Navelli",,"navelli",,"IT","67020","0","0","42.23766","13.72781","0","-1"
"144677","Ocre",,"ocre",,"IT","67040","0","0","42.28710","13.47625","0","-1"
"144678","San Martino d'Ocre",,"san-martino-d-ocre",,"IT","67040","0","0","42.27396","13.47819","0","-1"
"144679","Ofena",,"ofena",,"IT","67025","0","0","42.32689","13.75970","0","-1"
"144680","Opi",,"opi",,"IT","67030","0","0","41.78097","13.82974","0","-1"
"144681","Civita",,"civita",,"IT","67063","0","0","41.88624","13.46987","0","-1"
"144682","Oricola",,"oricola",,"IT","67063","0","0","42.04997","13.04057","0","-1"
"144683","Carrito",,"carrito",,"IT","67050","0","0","42.02903","13.71627","0","-1"
"144684","Ortona dei Marsi",,"ortona-dei-marsi",,"IT","67050","0","0","41.99782","13.72917","0","-1"
"144685","Ortucchio",,"ortucchio",,"IT","67050","0","0","41.95611","13.64672","0","-1"
"144686","Ovindoli",,"ovindoli",,"IT","67046","0","0","42.13815","13.51704","0","-1"
"144687","San Potito",,"san-potito",,"IT","67046","0","0","42.12145","13.51525","0","-1"
"144688","Santo iona",,"santo-iona",,"IT","67046","0","0","42.09904","13.51010","0","-1"
"144689","Pacentro",,"pacentro",,"IT","67030","0","0","42.05181","13.99239","0","-1"
"144690","Pereto",,"pereto",,"IT","67064","0","0","42.05913","13.10062","0","-1"
"144691","Pescasseroli",,"pescasseroli",,"IT","67032","0","0","41.80825","13.78958","0","-1"
"144692","Pescina",,"pescina",,"IT","67057","0","0","42.02629","13.65957","0","-1"
"144693","Venere",,"venere",,"IT","67057","0","0","41.98994","13.64564","0","-1"
"144694","Pescocostanzo",,"pescocostanzo",,"IT","67033","0","0","41.88859","14.06427","0","-1"
"144695","Pettorano sul Gizio",,"pettorano-sul-gizio",,"IT","67034","0","0","41.97565","13.95970","0","-1"
"144696","Marruci",,"marruci",,"IT","67017","0","0","42.44428","13.33719","0","-1"
"144697","Pizzoli",,"pizzoli",,"IT","67017","0","0","42.43225","13.31278","0","-1"
"144698","San Lorenzo di Pizzoli",,"san-lorenzo-di-pizzoli",,"IT","67017","0","0","42.42294","13.32296","0","-1"
"144699","Poggio Picenze",,"poggio-picenze",,"IT","67026","0","0","42.32174","13.54204","0","-1"
"144700","Prata d'Ansidonia",,"prata-d-ansidonia",,"IT","67020","0","0","42.27857","13.60654","0","-1"
"144701","Tussio",,"tussio",,"IT","67020","0","0","42.26580","13.64157","0","-1"
"144702","Bagnaturo",,"bagnaturo",,"IT","67035","0","0","42.09349","13.91086","0","-1"
"144703","Pratola Peligna",,"pratola-peligna",,"IT","67035","0","0","42.09939","13.87485","0","-1"
"144704","Campo di Fano",,"campo-di-fano",,"IT","67030","0","0","42.05533","13.88002","0","-1"
"144705","Prezza",,"prezza",,"IT","67030","0","0","42.05820","13.83340","0","-1"
"144706","Raiano",,"raiano",,"IT","67027","0","0","42.10261","13.81481","0","-1"
"144707","Rivisondoli",,"rivisondoli",,"IT","67036","0","0","41.87074","14.06642","0","-1"
"144708","Rocca di Botte",,"rocca-di-botte",,"IT","67066","0","0","42.02516","13.06913","0","-1"
"144709","Rocca di Cambio",,"rocca-di-cambio",,"IT","67047","0","0","42.23720","13.49002","0","-1"
"144710","Rocca di Mezzo",,"rocca-di-mezzo",,"IT","67048","0","0","42.20580","13.52033","0","-1"
"144711","Rovere",,"rovere",,"IT","67048","0","0","42.17704","13.51706","0","-1"
"144712","Rocca Pia",,"rocca-pia",,"IT","67030","0","0","41.93447","13.97747","0","-1"
"144713","Roccacasale",,"roccacasale",,"IT","67030","0","0","42.12395","13.88660","0","-1"
"144714","Aremogna",,"aremogna",,"IT","67037","0","0","41.82418","14.03389","0","-1"
"144715","Pietransieri",,"pietransieri",,"IT","67037","0","0","41.84758","14.11893","0","-1"
"144716","Roccaraso",,"roccaraso",,"IT","67037","0","0","41.84766","14.07994","0","-1"
"144717","San Benedetto dei Marsi",,"san-benedetto-dei-marsi",,"IT","67058","0","0","42.00403","13.61936","0","-1"
"144718","San Benedetto in Perillis",,"san-benedetto-in-perillis",,"IT","67020","0","0","42.18453","13.77127","0","-1"
"144719","San Demetrio ne' Vestini",,"san-demetrio-ne--vestini",,"IT","67028","0","0","42.28804","13.55819","0","-1"
"144720","Castelnuovo",,"castelnuovo",,"IT","67020","0","0","42.08709","13.45125","0","-1"
"144721","San Pio delle Camere",,"san-pio-delle-camere",,"IT","67020","0","0","42.28486","13.65849","0","-1"
"144722","Castronovo",,"castronovo",,"IT","67050","0","0","41.85040","13.48027","0","-1"
"144723","Roccavivi",,"roccavivi",,"IT","67050","0","0","41.81229","13.53483","0","-1"
"144724","San Vincenzo Valle Roveto",,"san-vincenzo-valle-roveto",,"IT","67050","0","0","41.83359","13.52341","0","-1"
"144725","San Vincenzo Valle Roveto superiore",,"san-vincenzo-valle-roveto-superiore",,"IT","67050","0","0","41.84444","13.53482","0","-1"
"144726","San Vincenzo Vecchio",,"san-vincenzo-vecchio",,"IT","67050","0","0","41.84386","13.53514","0","-1"
"144727","Sant'Eusanio Forconese",,"sant-eusanio-forconese",,"IT","67020","0","0","42.28898","13.52518","0","-1"
"144728","Sante Marie",,"sante-marie",,"IT","67067","0","0","42.10114","13.20540","0","-1"
"144729","Santo Stefano",,"santo-stefano",,"IT","67067","0","0","42.34420","13.64310","0","-1"
"144730","Scanzano",,"scanzano",,"IT","67067","0","0","42.10561","13.25013","0","-1"
"144731","Santo Stefano di Sessanio",,"santo-stefano-di-sessanio",,"IT","67020","0","0","42.34420","13.64310","0","-1"
"144732","Frattura",,"frattura",,"IT","67038","0","0","41.93059","13.87042","0","-1"
"144733","Scanno",,"scanno",,"IT","67038","0","0","41.90175","13.88275","0","-1"
"144734","Scontrone",,"scontrone",,"IT","67030","0","0","41.74722","14.03957","0","-1"
"144735","Villa Scontrone",,"villa-scontrone",,"IT","67030","0","0","41.75327","14.06433","0","-1"
"144736","Scoppito",,"scoppito",,"IT","67019","0","0","42.37215","13.25588","0","-1"
"144737","Sella di Corno",,"sella-di-corno",,"IT","67019","0","0","42.36369","13.18386","0","-1"
"144738","Vigliano",,"vigliano",,"IT","67019","0","0","42.34868","13.21913","0","-1"
"144739","Cappelle",,"cappelle",,"IT","67068","0","0","42.06592","13.38222","0","-1"
"144740","Scurcola Marsicana",,"scurcola-marsicana",,"IT","67068","0","0","42.06323","13.33950","0","-1"
"144741","Secinaro",,"secinaro",,"IT","67029","0","0","42.15383","13.68030","0","-1"
"144742","Abazia di Sulmona",,"abazia-di-sulmona",,"IT","67039","0","0","42.08987","13.91707","0","-1"
"144743","Albanese",,"albanese",,"IT","67039","0","0","42.02130","13.92563","0","-1"
"144744","Arabona",,"arabona",,"IT","67039","0","0","42.04755","13.91778","0","-1"
"144745","Cavate",,"cavate",,"IT","67039","0","0","42.00846","13.93017","0","-1"
"144746","Marane",,"marane",,"IT","67039","0","0","42.06752","13.94580","0","-1"
"144747","Sulmona",,"sulmona",,"IT","67039","0","0","42.04683","13.92565","0","-1"
"144748","Torrone",,"torrone",,"IT","67039","0","0","42.04638","13.89678","0","-1"
"144749","Gallo",,"gallo",,"IT","67069","0","0","42.09917","13.26532","0","-1"
"144750","Poggetello",,"poggetello",,"IT","67069","0","0","42.08790","13.23546","0","-1"
"144751","Poggio Filippo",,"poggio-filippo",,"IT","67069","0","0","42.08528","13.30466","0","-1"
"144752","Roccacerro",,"roccacerro",,"IT","67069","0","0","42.06619","13.20776","0","-1"
"144753","San Donato",,"san-donato",,"IT","67069","0","0","42.09377","13.28026","0","-1"
"144754","Sorbo",,"sorbo",,"IT","67069","0","0","42.07585","13.31572","0","-1"
"144755","Tagliacozzo",,"tagliacozzo",,"IT","67069","0","0","42.06887","13.25697","0","-1"
"144756","Tremonti",,"tremonti",,"IT","67069","0","0","42.09129","13.19522","0","-1"
"144757","Villa San Sebastiano",,"villa-san-sebastiano",,"IT","67069","0","0","42.03080","13.31252","0","-1"
"144758","Goriano Valli",,"goriano-valli",,"IT","67020","0","0","42.18383","13.66904","0","-1"
"144759","Tione degli Abruzzi",,"tione-degli-abruzzi",,"IT","67020","0","0","42.20297","13.63526","0","-1"
"144760","Rocca Santo Stefano",,"rocca-santo-stefano",,"IT","67049","0","0","42.33939","13.26033","0","-1"
"144761","San Nicola",,"san-nicola",,"IT","67049","0","0","42.41108","13.32043","0","-1"
"144762","Tornimparte",,"tornimparte",,"IT","67049","0","0","42.29853","13.29685","0","-1"
"144763","Villagrande",,"villagrande",,"IT","67049","0","0","42.29643","13.30094","0","-1"
"144764","Trasacco",,"trasacco",,"IT","67059","0","0","41.95798","13.53548","0","-1"
"144765","Villa Sant'Angelo",,"villa-sant-angelo",,"IT","67020","0","0","42.27141","13.53815","0","-1"
"144766","Carrufo",,"carrufo",,"IT","67020","0","0","42.33048","13.77267","0","-1"
"144767","Villa Santa Lucia degli Abruzzi",,"villa-santa-lucia-degli-abruzzi",,"IT","67020","0","0","42.33424","13.77798","0","-1"
"144768","Villalago",,"villalago",,"IT","67030","0","0","41.93527","13.83809","0","-1"
"144769","Villavallelonga",,"villavallelonga",,"IT","67050","0","0","41.86661","13.62661","0","-1"
"144770","Villetta Barrea",,"villetta-barrea",,"IT","67030","0","0","41.77566","13.93426","0","-1"
"144771","Vittorito",,"vittorito",,"IT","67030","0","0","42.12815","13.81766","0","-1"
"144772","Abbateggio",,"abbateggio",,"IT","65020","0","0","42.22452","14.01365","0","-1"
"144773","Alanno",,"alanno",,"IT","65020","0","0","42.29495","13.97174","0","-1"
"144774","Alanno Scalo",,"alanno-scalo",,"IT","65020","0","0","42.28531","14.01517","0","-1"
"144775","Ticchione",,"ticchione",,"IT","65020","0","0","42.29252","14.01174","0","-1"
"144776","Bolognano",,"bolognano",,"IT","65020","0","0","42.21924","13.96111","0","-1"
"144777","Musellaro",,"musellaro",,"IT","65020","0","0","42.19341","13.95418","0","-1"
"144778","Piano d'Orta",,"piano-d-orta",,"IT","65020","0","0","42.25082","13.95144","0","-1"
"144779","Brittoli",,"brittoli",,"IT","65010","0","0","42.31849","13.86246","0","-1"
"144780","Bussi Officine",,"bussi-officine",,"IT","65022","0","0","42.19737","13.84330","0","-1"
"144781","Bussi sul Tirino",,"bussi-sul-tirino",,"IT","65022","0","0","42.21263","13.82480","0","-1"
"144782","Cappelle sul Tavo",,"cappelle-sul-tavo",,"IT","65010","0","0","42.46502","14.10322","0","-1"
"144783","Caramanico Terme",,"caramanico-terme",,"IT","65023","0","0","42.15727","14.00293","0","-1"
"144784","San Tommaso",,"san-tommaso",,"IT","65023","0","0","42.18814","13.97127","0","-1"
"144785","Carpineto della Nora",,"carpineto-della-nora",,"IT","65010","0","0","42.33407","13.86172","0","-1"
"144786","Castiglione a Casauria",,"castiglione-a-casauria",,"IT","65020","0","0","42.23864","13.92336","0","-1"
"144787","Catignano",,"catignano",,"IT","65011","0","0","42.34702","13.95240","0","-1"
"144788","Cepagatti",,"cepagatti",,"IT","65012","0","0","42.36594","14.07672","0","-1"
"144789","Vallemare",,"vallemare",,"IT","65012","0","0","42.35293","14.10233","0","-1"
"144790","Villanova",,"villanova",,"IT","65012","0","0","42.38517","14.12533","0","-1"
"144791","Villareia",,"villareia",,"IT","65012","0","0","42.34407","14.11252","0","-1"
"144792","Citt√† Sant'Angelo",,"citta-sant-angelo",,"IT","65013","0","0","42.51924","14.06017","0","-1"
"144793","Marina",,"marina",,"IT","65013","0","0","42.52608","14.13801","0","-1"
"144794","San Martino bassa",,"san-martino-bassa",,"IT","65013","0","0","42.51424","14.12985","0","-1"
"144795","Villa Cipresso",,"villa-cipresso",,"IT","65013","0","0","42.51126","14.07202","0","-1"
"144796","Civitaquana",,"civitaquana",,"IT","65010","0","0","42.32562","13.90244","0","-1"
"144797","Civitella Casanova",,"civitella-casanova",,"IT","65010","0","0","42.36453","13.88571","0","-1"
"144798","Vestea",,"vestea",,"IT","65010","0","0","42.38873","13.88618","0","-1"
"144799","Barberi",,"barberi",,"IT","65010","0","0","42.44672","14.04470","0","-1"
"144800","Collecorvino",,"collecorvino",,"IT","65010","0","0","42.46002","14.01628","0","-1"
"144801","Congiunti",,"congiunti",,"IT","65010","0","0","42.47424","14.08611","0","-1"
"144802","Santa Lucia",,"santa-lucia",,"IT","65010","0","0","42.46626","14.07641","0","-1"
"144803","Corvara",,"corvara",,"IT","65020","0","0","42.27564","13.87390","0","-1"
"144804","Cugnoli",,"cugnoli",,"IT","65020","0","0","42.30813","13.93378","0","-1"
"144805","Elice",,"elice",,"IT","65010","0","0","42.52141","13.97033","0","-1"
"144806","Farindola",,"farindola",,"IT","65010","0","0","42.44229","13.82311","0","-1"
"144807","Lettomanoppello",,"lettomanoppello",,"IT","65020","0","0","42.24362","14.03589","0","-1"
"144808","Loreto Aprutino",,"loreto-aprutino",,"IT","65014","0","0","42.43670","13.98368","0","-1"
"144809","Manoppello",,"manoppello",,"IT","65024","0","0","42.25878","14.06094","0","-1"
"144810","Manoppello Scalo",,"manoppello-scalo",,"IT","65024","0","0","42.30985","14.06315","0","-1"
"144811","Ripacorbaria",,"ripacorbaria",,"IT","65024","0","0","42.25878","14.06094","0","-1"
"144812","Montebello di Bertona",,"montebello-di-bertona",,"IT","65010","0","0","42.41842","13.87307","0","-1"
"144813","Montesilvano",,"montesilvano",,"IT","65015","0","0","42.50507","14.13894","0","-1"
"144814","Montesilvano colle",,"montesilvano-colle",,"IT","65015","0","0","42.49126","14.14247","0","-1"
"144815","Montesilvano Marina",,"montesilvano-marina",,"IT","65015","0","0","42.51636","14.15624","0","-1"
"144816","Villa Carmine",,"villa-carmine",,"IT","65015","0","0","42.29513","14.01801","0","-1"
"144817","Moscufo",,"moscufo",,"IT","65010","0","0","42.42743","14.05438","0","-1"
"144818","Nocciano",,"nocciano",,"IT","65010","0","0","42.33407","13.98500","0","-1"
"144819","Penne",,"penne",,"IT","65017","0","0","42.45762","13.92748","0","-1"
"144820","Roccafinadamo",,"roccafinadamo",,"IT","65017","0","0","42.47797","13.82138","0","-1"
"144821","Pescara",,"pescara",,"IT","65121","0","0","42.46681","14.21492","0","-1"
"144822","Pesconuovo",,"pesconuovo",,"IT","65020","0","0","42.22309","13.98665","0","-1"
"144823","Pescosansonesco",,"pescosansonesco",,"IT","65020","0","0","42.25510","13.88443","0","-1"
"144824","Castellana",,"castellana",,"IT","65019","0","0","42.39861","14.10815","0","-1"
"144825","Cerratina",,"cerratina",,"IT","65019","0","0","42.39189","14.10487","0","-1"
"144826","Pianella",,"pianella",,"IT","65019","0","0","42.39730","14.04776","0","-1"
"144827","Piccianello",,"piccianello",,"IT","65010","0","0","42.48533","13.99174","0","-1"
"144828","Picciano",,"picciano",,"IT","65010","0","0","42.47620","13.99008","0","-1"
"144829","Pietranico",,"pietranico",,"IT","65020","0","0","42.27737","13.91143","0","-1"
"144830","Popoli",,"popoli",,"IT","65026","0","0","42.17094","13.83172","0","-1"
"144831","Roccamorice",,"roccamorice",,"IT","65020","0","0","42.21554","14.02441","0","-1"
"144832","Rosciano",,"rosciano",,"IT","65020","0","0","42.32502","14.04720","0","-1"
"144833","Villa Badessa",,"villa-badessa",,"IT","65020","0","0","42.35409","14.03997","0","-1"
"144834","Villa Oliveti",,"villa-oliveti",,"IT","65020","0","0","42.33891","14.06720","0","-1"
"144835","Villa San Giovanni",,"villa-san-giovanni",,"IT","65020","0","0","42.33970","14.02678","0","-1"
"144836","Salle",,"salle",,"IT","65020","0","0","42.17798","13.96220","0","-1"
"144837","San Valentino in Abruzzo Citeriore",,"san-valentino-in-abruzzo-citeriore",,"IT","65020","0","0","42.23407","13.98657","0","-1"
"144838","Sant'Eufemia a Maiella",,"sant-eufemia-a-maiella",,"IT","65020","0","0","42.12717","14.02648","0","-1"
"144839","Decontra",,"decontra",,"IT","65027","0","0","42.16797","14.02897","0","-1"
"144840","Scafa",,"scafa",,"IT","65027","0","0","42.26687","13.99661","0","-1"
"144841","Serramonacesca",,"serramonacesca",,"IT","65025","0","0","42.24561","14.09279","0","-1"
"144842","Caprara d'Abruzzo",,"caprara-d-abruzzo",,"IT","65010","0","0","42.43439","14.11033","0","-1"
"144843","Santa Teresa",,"santa-teresa",,"IT","65010","0","0","42.42594","14.16033","0","-1"
"144844","Spoltore",,"spoltore",,"IT","65010","0","0","42.45453","14.14208","0","-1"
"144845","Villa Raspa",,"villa-raspa",,"IT","65010","0","0","42.45772","14.18708","0","-1"
"144846","Tocco da Casauria",,"tocco-da-casauria",,"IT","65028","0","0","42.21487","13.91456","0","-1"
"144847","Torre de' Passeri",,"torre-de--passeri",,"IT","65029","0","0","42.24422","13.93422","0","-1"
"144848","Turrivalignani",,"turrivalignani",,"IT","65020","0","0","42.26172","14.02614","0","-1"
"144849","Vicoli",,"vicoli",,"IT","65010","0","0","42.34165","13.89732","0","-1"
"144850","Villa Celiera",,"villa-celiera",,"IT","65010","0","0","42.38281","13.85954","0","-1"
"144851","Alba Adriatica",,"alba-adriatica",,"IT","64011","0","0","42.83183","13.92604","0","-1"
"144852","Ancarano",,"ancarano",,"IT","64010","0","0","42.83698","13.74065","0","-1"
"144853","Arsita",,"arsita",,"IT","64031","0","0","42.50238","13.78457","0","-1"
"144854","Atri",,"atri",,"IT","64032","0","0","42.58020","13.98100","0","-1"
"144855","Casoli",,"casoli",,"IT","64032","0","0","42.61712","13.97966","0","-1"
"144856","Fontanelle",,"fontanelle",,"IT","64032","0","0","42.61921","13.92724","0","-1"
"144857","San Giacomo",,"san-giacomo",,"IT","64032","0","0","42.59672","13.92565","0","-1"
"144858","Santa Margherita",,"santa-margherita",,"IT","64032","0","0","42.60637","13.94224","0","-1"
"144859","Treciminiere",,"treciminiere",,"IT","64032","0","0","42.55143","14.04893","0","-1"
"144860","Basciano",,"basciano",,"IT","64030","0","0","42.59487","13.74111","0","-1"
"144861","Bellante",,"bellante",,"IT","64020","0","0","42.74485","13.80399","0","-1"
"144862","Bellante stazione",,"bellante-stazione",,"IT","64020","0","0","42.70651","13.83830","0","-1"
"144863","Ripattoni",,"ripattoni",,"IT","64020","0","0","42.71491","13.83710","0","-1"
"144864","Bisenti",,"bisenti",,"IT","64033","0","0","42.52844","13.80112","0","-1"
"144865","Campli",,"campli",,"IT","64012","0","0","42.72953","13.69333","0","-1"
"144866","Campovalano",,"campovalano",,"IT","64012","0","0","42.72907","13.66376","0","-1"
"144867","Garrufo di Campli",,"garrufo-di-campli",,"IT","64012","0","0","42.73709","13.65706","0","-1"
"144868","Paterno",,"paterno",,"IT","64012","0","0","42.75318","13.71892","0","-1"
"144869","Piancarani",,"piancarani",,"IT","64012","0","0","42.73378","13.72767","0","-1"
"144870","Sant'Onofrio",,"sant-onofrio",,"IT","64012","0","0","42.76109","13.73679","0","-1"
"144871","Canzano",,"canzano",,"IT","64020","0","0","42.64674","13.80500","0","-1"
"144872","Valle Canzano",,"valle-canzano",,"IT","64020","0","0","42.65858","13.79306","0","-1"
"144873","Castel Castagna",,"castel-castagna",,"IT","64030","0","0","42.54391","13.71735","0","-1"
"144874","Casemolino",,"casemolino",,"IT","64020","0","0","42.69750","13.82922","0","-1"
"144875","Castelbasso",,"castelbasso",,"IT","64020","0","0","42.64506","13.84440","0","-1"
"144876","Castellalto",,"castellalto",,"IT","64020","0","0","42.67868","13.82322","0","-1"
"144877","Castelnuovo vomano",,"castelnuovo-vomano",,"IT","64020","0","0","42.62842","13.85119","0","-1"
"144878","Petriccione",,"petriccione",,"IT","64020","0","0","42.69916","13.83885","0","-1"
"144879","Villa Zaccheo",,"villa-zaccheo",,"IT","64020","0","0","42.69633","13.84567","0","-1"
"144880","Castelli",,"castelli",,"IT","64041","0","0","42.48910","13.71179","0","-1"
"144881","Colledoro",,"colledoro",,"IT","64041","0","0","42.51463","13.73147","0","-1"
"144882","Appignano",,"appignano",,"IT","64034","0","0","42.54532","13.84960","0","-1"
"144883","Castiglione Messer Raimondo",,"castiglione-messer-raimondo",,"IT","64034","0","0","42.53239","13.87933","0","-1"
"144884","Castilenti",,"castilenti",,"IT","64035","0","0","42.53360","13.91768","0","-1"
"144885","Villa San romualdo",,"villa-san-romualdo",,"IT","64035","0","0","42.55193","13.94487","0","-1"
"144886","Cellino Attanasio",,"cellino-attanasio",,"IT","64036","0","0","42.58629","13.85783","0","-1"
"144887","Scorrano",,"scorrano",,"IT","64036","0","0","42.59222","13.81983","0","-1"
"144888","Cermignano",,"cermignano",,"IT","64037","0","0","42.59267","13.79689","0","-1"
"144889","Montegualtieri",,"montegualtieri",,"IT","64037","0","0","42.61582","13.82156","0","-1"
"144890","Poggio delle rose",,"poggio-delle-rose",,"IT","64037","0","0","42.57142","13.81080","0","-1"
"144891","Cerqueto del Tronto",,"cerqueto-del-tronto",,"IT","64010","0","0","42.79491","13.61653","0","-1"
"144892","Civitella del Tronto",,"civitella-del-tronto",,"IT","64010","0","0","42.77239","13.66704","0","-1"
"144893","Ponzano",,"ponzano",,"IT","64010","0","0","42.69902","13.72517","0","-1"
"144894","Ripe civitella del Tronto",,"ripe-civitella-del-tronto",,"IT","64010","0","0","42.75657","13.63697","0","-1"
"144895","Rocche di Civitella",,"rocche-di-civitella",,"IT","64010","0","0","42.75502","13.66659","0","-1"
"144896","Villa Favale",,"villa-favale",,"IT","64010","0","0","42.77870","13.67810","0","-1"
"144897","Villa Lempa",,"villa-lempa",,"IT","64010","0","0","42.79487","13.64750","0","-1"
"144898","Villa Passo",,"villa-passo",,"IT","64010","0","0","42.77893","13.65296","0","-1"
"144899","Colledara",,"colledara",,"IT","64042","0","0","42.54073","13.67938","0","-1"
"144900","Ornano Grande",,"ornano-grande",,"IT","64042","0","0","42.53485","13.65250","0","-1"
"144901","Villa Petto",,"villa-petto",,"IT","64042","0","0","42.57002","13.71777","0","-1"
"144902","Colonnella",,"colonnella",,"IT","64010","0","0","42.87224","13.86727","0","-1"
"144903","Controguerra",,"controguerra",,"IT","64010","0","0","42.85565","13.81861","0","-1"
"144904","Corropoli",,"corropoli",,"IT","64013","0","0","42.83048","13.83298","0","-1"
"144905","Cortino",,"cortino",,"IT","64040","0","0","42.63218","13.54184","0","-1"
"144906","Padula",,"padula",,"IT","64040","0","0","42.63349","13.46955","0","-1"
"144907","Pagliaroli",,"pagliaroli",,"IT","64040","0","0","42.63259","13.54233","0","-1"
"144908","Cervaro",,"cervaro",,"IT","64043","0","0","42.58223","13.47567","0","-1"
"144909","Cesacastina",,"cesacastina",,"IT","64043","0","0","42.58854","13.44778","0","-1"
"144910","Crognaleto",,"crognaleto",,"IT","64043","0","0","42.58763","13.48922","0","-1"
"144911","Macchia Vomano",,"macchia-vomano",,"IT","64043","0","0","42.56824","13.51805","0","-1"
"144912","Nerito",,"nerito",,"IT","64043","0","0","42.54760","13.47756","0","-1"
"144913","Poggio Umbricchio",,"poggio-umbricchio",,"IT","64043","0","0","42.56217","13.55210","0","-1"
"144914","San Giorgio",,"san-giorgio",,"IT","64043","0","0","42.59509","13.53345","0","-1"
"144915","Tottea",,"tottea",,"IT","64043","0","0","42.55430","13.46706","0","-1"
"144916","Cerqueto",,"cerqueto",,"IT","64044","0","0","42.79491","13.61653","0","-1"
"144917","Fano Adriano",,"fano-adriano",,"IT","64044","0","0","42.55319","13.53631","0","-1"
"144918","Colleranesco",,"colleranesco",,"IT","64021","0","0","42.72484","13.94503","0","-1"
"144919","Giulianova",,"giulianova",,"IT","64021","0","0","42.75255","13.96237","0","-1"
"144920","Giulianova spiaggia",,"giulianova-spiaggia",,"IT","64021","0","0","42.73206","13.98082","0","-1"
"144921","Cerchiara",,"cerchiara",,"IT","64045","0","0","42.50493","13.62721","0","-1"
"144922","Fano a Corno",,"fano-a-corno",,"IT","64045","0","0","42.49112","13.61555","0","-1"
"144923","Forca di Valle",,"forca-di-valle",,"IT","64045","0","0","42.51947","13.63209","0","-1"
"144924","Isola del Gran Sasso d'Italia",,"isola-del-gran-sasso-d-italia",,"IT","64045","0","0","42.50252","13.66091","0","-1"
"144925","San gabriele dell'Addolorata",,"san-gabriele-dell-addolorata",,"IT","64045","0","0","42.51694","13.65750","0","-1"
"144926","Martinsicuro",,"martinsicuro",,"IT","64014","0","0","42.88470","13.91548","0","-1"
"144927","Villa Rosa",,"villa-rosa",,"IT","64014","0","0","42.85252","13.92250","0","-1"
"144928","Montefino",,"montefino",,"IT","64030","0","0","42.54562","13.88466","0","-1"
"144929","Villa Bozza",,"villa-bozza",,"IT","64030","0","0","42.55980","13.92140","0","-1"
"144930","Collevecchio di Montorio",,"collevecchio-di-montorio",,"IT","64046","0","0","42.59513","13.66441","0","-1"
"144931","Cusciano",,"cusciano",,"IT","64046","0","0","42.56985","13.58557","0","-1"
"144932","Leognano",,"leognano",,"IT","64046","0","0","42.58338","13.68037","0","-1"
"144933","Montorio al Vomano",,"montorio-al-vomano",,"IT","64046","0","0","42.58322","13.63280","0","-1"
"144934","Morro d'Oro",,"morro-d-oro",,"IT","64020","0","0","42.66358","13.92098","0","-1"
"144935","Pagliare",,"pagliare",,"IT","64020","0","0","42.64648","13.95338","0","-1"
"144936","Montone",,"montone",,"IT","64023","0","0","42.76790","13.91882","0","-1"
"144937","Mosciano Sant'Angelo",,"mosciano-sant-angelo",,"IT","64023","0","0","42.74918","13.88854","0","-1"
"144938","Notaresco stazione",,"notaresco-stazione",,"IT","64023","0","0","42.70907","13.87798","0","-1"
"144939","Nereto",,"nereto",,"IT","64015","0","0","42.82000","13.81706","0","-1"
"144940","Guardia Vomano",,"guardia-vomano",,"IT","64024","0","0","42.65930","13.89261","0","-1"
"144941","Notaresco",,"notaresco",,"IT","64024","0","0","42.65930","13.89261","0","-1"
"144942","Pianura vomano",,"pianura-vomano",,"IT","64024","0","0","42.63315","13.90128","0","-1"
"144943","Penna Sant'Andrea",,"penna-sant-andrea",,"IT","64039","0","0","42.59429","13.77205","0","-1"
"144944","Val Vomano",,"val-vomano",,"IT","64039","0","0","42.60726","13.75205","0","-1"
"144945","Intermesoli",,"intermesoli",,"IT","64047","0","0","42.53544","13.54171","0","-1"
"144946","Pietracamela",,"pietracamela",,"IT","64047","0","0","42.52305","13.55339","0","-1"
"144947","Borgo Santa Maria immacolata",,"borgo-santa-maria-immacolata",,"IT","64025","0","0","42.61252","14.04454","0","-1"
"144948","Mutignano",,"mutignano",,"IT","64025","0","0","42.58812","14.03690","0","-1"
"144949","Pineto",,"pineto",,"IT","64025","0","0","42.61196","14.06300","0","-1"
"144950","Scerne",,"scerne",,"IT","64025","0","0","42.64954","14.03844","0","-1"
"144951","Rocca Santa Maria",,"rocca-santa-maria",,"IT","64010","0","0","42.68707","13.52753","0","-1"
"144952","Cologna paese",,"cologna-paese",,"IT","64026","0","0","42.69366","13.94806","0","-1"
"144953","Cologna spiaggia",,"cologna-spiaggia",,"IT","64026","0","0","42.72580","13.98078","0","-1"
"144954","Montepagano",,"montepagano",,"IT","64026","0","0","42.67751","13.98707","0","-1"
"144955","Roseto degli Abruzzi",,"roseto-degli-abruzzi",,"IT","64026","0","0","42.67516","14.01613","0","-1"
"144956","San Giovanni",,"san-giovanni",,"IT","64026","0","0","42.65435","13.98740","0","-1"
"144957","Santa Lucia",,"santa-lucia",,"IT","64026","0","0","42.59378","13.61752","0","-1"
"144958","Faraone nuovo",,"faraone-nuovo",,"IT","64016","0","0","42.80383","13.68084","0","-1"
"144959","Paolantonio",,"paolantonio",,"IT","64016","0","0","42.80818","13.74154","0","-1"
"144960","Sant'Egidio alla Vibrata",,"sant-egidio-alla-vibrata",,"IT","64016","0","0","42.82392","13.71395","0","-1"
"144961","Villa Mattoni",,"villa-mattoni",,"IT","64016","0","0","42.82065","13.68891","0","-1"
"144962","Garrufo",,"garrufo",,"IT","64027","0","0","42.73709","13.65706","0","-1"
"144963","Poggio Morello",,"poggio-morello",,"IT","64027","0","0","42.78470","13.87424","0","-1"
"144964","Sant'Omero",,"sant-omero",,"IT","64027","0","0","42.79190","13.78763","0","-1"
"144965","Pianacce",,"pianacce",,"IT","64028","0","0","42.55660","14.08597","0","-1"
"144966","San Silvestro",,"san-silvestro",,"IT","64028","0","0","42.55009","14.10486","0","-1"
"144967","Silvi",,"silvi",,"IT","64028","0","0","42.54674","14.12298","0","-1"
"144968","Silvi Marina",,"silvi-marina",,"IT","64028","0","0","42.54935","14.11812","0","-1"
"144969","Cartecchio",,"cartecchio",,"IT","64100","0","0","42.65639","13.70459","0","-1"
"144970","Castagneto",,"castagneto",,"IT","64100","0","0","42.67060","13.64732","0","-1"
"144971","Colle Santa Maria",,"colle-santa-maria",,"IT","64100","0","0","42.70569","13.72461","0","-1"
"144972","Colleatterrato alto",,"colleatterrato-alto",,"IT","64100","0","0","42.67861","13.73611","0","-1"
"144973","Colleminuccio",,"colleminuccio",,"IT","64100","0","0","42.68954","13.71767","0","-1"
"144974","Forcella",,"forcella",,"IT","64100","0","0","42.62248","13.76790","0","-1"
"144975","Frondarola",,"frondarola",,"IT","64100","0","0","42.62111","13.64785","0","-1"
"144976","Miano",,"miano",,"IT","64100","0","0","42.61954","13.70815","0","-1"
"144977","Nepezzano",,"nepezzano",,"IT","64100","0","0","42.68987","13.75657","0","-1"
"144978","Piano d'accio",,"piano-d-accio",,"IT","64100","0","0","42.68436","13.75763","0","-1"
"144979","Poggio San Vittorino",,"poggio-san-vittorino",,"IT","64100","0","0","42.66653","13.77756","0","-1"
"144980","San Nicol√≤ a Tordino",,"san-nicolo-a-tordino",,"IT","64100","0","0","42.69531","13.78987","0","-1"
"144981","Sant'Atto",,"sant-atto",,"IT","64100","0","0","42.70780","13.80766","0","-1"
"144982","Spiano",,"spiano",,"IT","64100","0","0","42.60644","13.66627","0","-1"
"144983","Teramo",,"teramo",,"IT","64100","0","0","42.66127","13.69853","0","-1"
"144984","Tordinia",,"tordinia",,"IT","64100","0","0","42.63389","13.65715","0","-1"
"144985","Valle San Giovanni",,"valle-san-giovanni",,"IT","64100","0","0","42.62195","13.61824","0","-1"
"144986","Varano",,"varano",,"IT","64100","0","0","42.70561","13.72015","0","-1"
"144987","Villa Ripa",,"villa-ripa",,"IT","64100","0","0","42.63436","13.65219","0","-1"
"144988","Villa Vomano",,"villa-vomano",,"IT","64100","0","0","42.61597","13.76335","0","-1"
"144989","Torano Nuovo",,"torano-nuovo",,"IT","64010","0","0","42.82407","13.77830","0","-1"
"144990","Ioanella",,"ioanella",,"IT","64010","0","0","42.66419","13.62123","0","-1"
"144991","Santo Stefano",,"santo-stefano",,"IT","64010","0","0","42.65385","13.60317","0","-1"
"144992","Torricella Sicura",,"torricella-sicura",,"IT","64010","0","0","42.65828","13.65599","0","-1"
"144993","Salino",,"salino",,"IT","64018","0","0","42.78650","13.91348","0","-1"
"144994","Tortoreto",,"tortoreto",,"IT","64018","0","0","42.80440","13.91298","0","-1"
"144995","Tortoreto Lido",,"tortoreto-lido",,"IT","64018","0","0","42.79956","13.94206","0","-1"
"144996","Azzinano",,"azzinano",,"IT","64049","0","0","42.55512","13.63232","0","-1"
"144997","Chiarino",,"chiarino",,"IT","64049","0","0","42.55609","13.66643","0","-1"
"144998","Tossicia",,"tossicia",,"IT","64049","0","0","42.54553","13.64798","0","-1"
"144999","Cesano",,"cesano",,"IT","64010","0","0","42.80438","13.53589","0","-1"
"145000","Leofara",,"leofara",,"IT","64010","0","0","42.74274","13.55091","0","-1"
"145001","Pascellata",,"pascellata",,"IT","64010","0","0","42.70109","13.49657","0","-1"
"145002","Pietralta",,"pietralta",,"IT","64010","0","0","42.71153","13.44764","0","-1"
"145003","San Vito",,"san-vito",,"IT","64010","0","0","42.79228","13.55039","0","-1"
"145004","Valle Castellana",,"valle-castellana",,"IT","64010","0","0","42.73667","13.49687","0","-1"
"145005","Accettura",,"accettura",,"IT","75011","0","0","40.49204","16.15893","0","-1"
"145006","Aliano",,"aliano",,"IT","75010","0","0","40.31379","16.22985","0","-1"
"145007","Bernalda",,"bernalda",,"IT","75012","0","0","40.41393","16.69281","0","-1"
"145008","Metaponto",,"metaponto",,"IT","75012","0","0","40.37403","16.80744","0","-1"
"145009","Metaponto lido",,"metaponto-lido",,"IT","75012","0","0","40.36080","16.83500","0","-1"
"145010","Serra Marina",,"serra-marina",,"IT","75012","0","0","40.44502","16.78157","0","-1"
"145011","Calciano",,"calciano",,"IT","75010","0","0","40.58783","16.19214","0","-1"
"145012","Cirigliano",,"cirigliano",,"IT","75010","0","0","40.39499","16.17284","0","-1"
"145013","Colobraro",,"colobraro",,"IT","75021","0","0","40.18846","16.42596","0","-1"
"145014","Craco",,"craco",,"IT","75010","0","0","40.38023","16.43631","0","-1"
"145015","Peschiera",,"peschiera",,"IT","75010","0","0","40.36063","16.49657","0","-1"
"145016","Ferrandina",,"ferrandina",,"IT","75013","0","0","40.50237","16.45565","0","-1"
"145017","Macchia",,"macchia",,"IT","75013","0","0","40.47091","16.50274","0","-1"
"145018","Garaguso",,"garaguso",,"IT","75010","0","0","40.54956","16.22815","0","-1"
"145019","Gorgoglione",,"gorgoglione",,"IT","75010","0","0","40.39366","16.14412","0","-1"
"145020","Grassano",,"grassano",,"IT","75014","0","0","40.63269","16.28351","0","-1"
"145021","Grottole",,"grottole",,"IT","75010","0","0","40.60207","16.38069","0","-1"
"145022","Irsina",,"irsina",,"IT","75022","0","0","40.74857","16.23946","0","-1"
"145023","Taccone",,"taccone",,"IT","75022","0","0","40.79848","16.16283","0","-1"
"145024","La Martella",,"la-martella",,"IT","75100","0","0","40.66085","16.53767","0","-1"
"145025","Matera",,"matera",,"IT","75100","0","0","40.66865","16.60609","0","-1"
"145026","Venusio",,"venusio",,"IT","75100","0","0","40.72330","16.58065","0","-1"
"145027","Miglionico",,"miglionico",,"IT","75010","0","0","40.56938","16.49963","0","-1"
"145028","Montalbano Jonico",,"montalbano-jonico",,"IT","75023","0","0","40.29088","16.56579","0","-1"
"145029","Montescaglioso",,"montescaglioso",,"IT","75024","0","0","40.55333","16.66793","0","-1"
"145030","Nova Siri",,"nova-siri",,"IT","75020","0","0","40.14903","16.54137","0","-1"
"145031","Nova siri Scalo",,"nova-siri-scalo",,"IT","75020","0","0","40.13344","16.63580","0","-1"
"145032","Oliveto Lucano",,"oliveto-lucano",,"IT","75010","0","0","40.53643","16.18548","0","-1"
"145033","Marconia",,"marconia",,"IT","75020","0","0","40.36399","16.68826","0","-1"
"145034","Pisticci",,"pisticci",,"IT","75010","0","0","40.46881","16.31135","0","-1"
"145035","Pisticci Scalo",,"pisticci-scalo",,"IT","75010","0","0","40.42104","16.54879","0","-1"
"145036","Policoro",,"policoro",,"IT","75025","0","0","40.21297","16.67834","0","-1"
"145037","Pomarico",,"pomarico",,"IT","75016","0","0","40.51560","16.54876","0","-1"
"145038","Rotondella",,"rotondella",,"IT","75026","0","0","40.17235","16.52641","0","-1"
"145039","Salandra",,"salandra",,"IT","75017","0","0","40.52811","16.31946","0","-1"
"145040","San Giorgio Lucano",,"san-giorgio-lucano",,"IT","75027","0","0","40.11077","16.38755","0","-1"
"145041","San Mauro Forte",,"san-mauro-forte",,"IT","75010","0","0","40.48673","16.25059","0","-1"
"145042","Recoleta",,"recoleta",,"IT","75020","0","0","40.25252","16.65454","0","-1"
"145043","Scanzano Jonico",,"scanzano-jonico",,"IT","75020","0","0","40.25098","16.69914","0","-1"
"145044","Stigliano",,"stigliano",,"IT","75018","0","0","40.40352","16.22773","0","-1"
"145045","Calle",,"calle",,"IT","75019","0","0","40.68393","16.13378","0","-1"
"145046","Tricarico",,"tricarico",,"IT","75019","0","0","40.61878","16.14735","0","-1"
"145047","Caprarico",,"caprarico",,"IT","75028","0","0","40.30778","16.40423","0","-1"
"145048","Gannano",,"gannano",,"IT","75028","0","0","40.32164","16.41227","0","-1"
"145049","Tursi",,"tursi",,"IT","75028","0","0","40.24626","16.47065","0","-1"
"145050","Valsinni",,"valsinni",,"IT","75029","0","0","40.17094","16.44439","0","-1"
"145051","Abriola",,"abriola",,"IT","85010","0","0","40.50807","15.81375","0","-1"
"145052","Acerenza",,"acerenza",,"IT","85011","0","0","40.79313","15.93751","0","-1"
"145053","Albano di Lucania",,"albano-di-lucania",,"IT","85010","0","0","40.58563","16.03704","0","-1"
"145054","Anzi",,"anzi",,"IT","85010","0","0","40.51767","15.92548","0","-1"
"145055","Armento",,"armento",,"IT","85010","0","0","40.30780","16.06547","0","-1"
"145056","Atella",,"atella",,"IT","85020","0","0","40.87681","15.65131","0","-1"
"145057","Sant'Andrea",,"sant-andrea",,"IT","85020","0","0","40.89607","15.58974","0","-1"
"145058","Sant'Ilario",,"sant-ilario",,"IT","85020","0","0","40.79132","15.66658","0","-1"
"145059","Avigliano",,"avigliano",,"IT","85020","0","0","40.73080","15.72128","0","-1"
"145060","Castel Lagopesole",,"castel-lagopesole",,"IT","85020","0","0","40.79681","15.74505","0","-1"
"145061","Piano del conte",,"piano-del-conte",,"IT","85020","0","0","40.82950","15.75254","0","-1"
"145062","Possidente",,"possidente",,"IT","85020","0","0","40.78177","15.77546","0","-1"
"145063","Sant'Angelo",,"sant-angelo",,"IT","85020","0","0","40.75954","15.79313","0","-1"
"145064","Balvano",,"balvano",,"IT","85050","0","0","40.65143","15.51500","0","-1"
"145065","Banzi",,"banzi",,"IT","85010","0","0","40.86174","16.01393","0","-1"
"145066","Baragiano",,"baragiano",,"IT","85050","0","0","40.68031","15.59531","0","-1"
"145067","Scalo di Baragiano",,"scalo-di-baragiano",,"IT","85050","0","0","40.69315","15.57846","0","-1"
"145068","Barile",,"barile",,"IT","85022","0","0","40.94712","15.67324","0","-1"
"145069","Bella",,"bella",,"IT","85021","0","0","40.75936","15.53942","0","-1"
"145070","San Cataldo",,"san-cataldo",,"IT","85021","0","0","39.99533","16.09191","0","-1"
"145071","Sant'Antonio Casalini",,"sant-antonio-casalini",,"IT","85051","0","0","40.73217","15.59344","0","-1"
"145072","Brienza",,"brienza",,"IT","85050","0","0","40.47886","15.63084","0","-1"
"145073","Brindisi Montagna",,"brindisi-montagna",,"IT","85010","0","0","40.61067","15.94066","0","-1"
"145074","Calvello",,"calvello",,"IT","85010","0","0","40.47704","15.84956","0","-1"
"145075","Calvera",,"calvera",,"IT","85030","0","0","40.14894","16.14370","0","-1"
"145076","Campomaggiore",,"campomaggiore",,"IT","85010","0","0","40.56832","16.07431","0","-1"
"145077","Cancellara",,"cancellara",,"IT","85010","0","0","40.73126","15.92674","0","-1"
"145078","Carbone",,"carbone",,"IT","85030","0","0","40.14344","16.09033","0","-1"
"145079","Castelgrande",,"castelgrande",,"IT","85050","0","0","40.78571","15.42968","0","-1"
"145080","Castelluccio Inferiore",,"castelluccio-inferiore",,"IT","85040","0","0","40.00476","15.98079","0","-1"
"145081","Castelluccio Superiore",,"castelluccio-superiore",,"IT","85040","0","0","40.01143","15.97594","0","-1"
"145082","Castelmezzano",,"castelmezzano",,"IT","85010","0","0","40.52920","16.04505","0","-1"
"145083","Castelsaraceno",,"castelsaraceno",,"IT","85031","0","0","40.16487","15.99283","0","-1"
"145084","Frusci",,"frusci",,"IT","85031","0","0","40.78204","15.74393","0","-1"
"145085","Miraldo",,"miraldo",,"IT","85031","0","0","40.16107","15.97500","0","-1"
"145086","Castronuovo di Sant'Andrea",,"castronuovo-di-sant-andrea",,"IT","85030","0","0","40.18937","16.18526","0","-1"
"145087","Cersosimo",,"cersosimo",,"IT","85030","0","0","40.04807","16.35087","0","-1"
"145088","Chiaromonte",,"chiaromonte",,"IT","85032","0","0","40.12502","16.21563","0","-1"
"145089","Corleto Perticara",,"corleto-perticara",,"IT","85012","0","0","40.38431","16.04107","0","-1"
"145090","Episcopia",,"episcopia",,"IT","85033","0","0","40.07596","16.09907","0","-1"
"145091","Fardella",,"fardella",,"IT","85034","0","0","40.11475","16.17021","0","-1"
"145092","Dragonetti",,"dragonetti",,"IT","85020","0","0","40.83235","15.71657","0","-1"
"145093","Filiano",,"filiano",,"IT","85020","0","0","40.81152","15.70672","0","-1"
"145094","Scalera",,"scalera",,"IT","85020","0","0","40.86053","15.71972","0","-1"
"145095","Sterpito di Sopra",,"sterpito-di-sopra",,"IT","85020","0","0","40.78746","15.68550","0","-1"
"145096","Sterpito di Sotto",,"sterpito-di-sotto",,"IT","85020","0","0","40.79710","15.68346","0","-1"
"145097","Forenza",,"forenza",,"IT","85023","0","0","40.85987","15.85735","0","-1"
"145098","Francavilla in Sinni",,"francavilla-in-sinni",,"IT","85034","0","0","40.08017","16.20424","0","-1"
"145099","Gallicchio",,"gallicchio",,"IT","85010","0","0","40.28929","16.13896","0","-1"
"145100","Genzano di Lucania",,"genzano-di-lucania",,"IT","85013","0","0","40.84891","16.03174","0","-1"
"145101","Ginestra",,"ginestra",,"IT","85020","0","0","40.93027","15.73385","0","-1"
"145102","Grumento Nova",,"grumento-nova",,"IT","85050","0","0","40.28393","15.88970","0","-1"
"145103","Guardia Perticara",,"guardia-perticara",,"IT","85010","0","0","40.35829","16.10040","0","-1"
"145104","Lagonegro",,"lagonegro",,"IT","85042","0","0","40.12939","15.76235","0","-1"
"145105","Agromonte",,"agromonte",,"IT","85043","0","0","40.05627","16.05666","0","-1"
"145106","Cerri",,"cerri",,"IT","85043","0","0","40.07146","15.97967","0","-1"
"145107","Latronico",,"latronico",,"IT","85043","0","0","40.09088","16.01085","0","-1"
"145108","Magnano",,"magnano",,"IT","85043","0","0","40.05565","16.05628","0","-1"
"145109","Mileo",,"mileo",,"IT","85043","0","0","40.05952","16.03126","0","-1"
"145110","Laurenzana",,"laurenzana",,"IT","85014","0","0","40.45861","15.97158","0","-1"
"145111","Cogliandrino",,"cogliandrino",,"IT","85044","0","0","40.09412","15.93005","0","-1"
"145112","Galdo",,"galdo",,"IT","85044","0","0","40.02313","15.87922","0","-1"
"145113","Lauria",,"lauria",,"IT","85044","0","0","40.04787","15.83752","0","-1"
"145114","Lauria inferiore",,"lauria-inferiore",,"IT","85044","0","0","40.03626","15.81643","0","-1"
"145115","Lauria superiore",,"lauria-superiore",,"IT","85044","0","0","40.01881","15.88815","0","-1"
"145116","Pecorone",,"pecorone",,"IT","85044","0","0","40.07204","15.85730","0","-1"
"145117","Seluci",,"seluci",,"IT","85044","0","0","40.07252","15.94956","0","-1"
"145118","Gaudiano",,"gaudiano",,"IT","85024","0","0","41.10237","15.89592","0","-1"
"145119","Lavello",,"lavello",,"IT","85024","0","0","41.04674","15.79174","0","-1"
"145120","Acquafredda",,"acquafredda",,"IT","85046","0","0","40.03543","15.67440","0","-1"
"145121","Fiumicello Santa Venere",,"fiumicello-santa-venere",,"IT","85046","0","0","39.99752","15.70281","0","-1"
"145122","Maratea",,"maratea",,"IT","85046","0","0","39.99793","15.71831","0","-1"
"145123","Maratea Porto",,"maratea-porto",,"IT","85046","0","0","39.98929","15.70937","0","-1"
"145124","Massa",,"massa",,"IT","85046","0","0","39.98375","15.74773","0","-1"
"145125","Galaino",,"galaino",,"IT","85052","0","0","40.38247","15.76419","0","-1"
"145126","Marsico Nuovo",,"marsico-nuovo",,"IT","85052","0","0","40.42397","15.73546","0","-1"
"145127","Pergola",,"pergola",,"IT","85052","0","0","40.43154","15.68145","0","-1"
"145128","Marsicovetere",,"marsicovetere",,"IT","85050","0","0","40.37685","15.82410","0","-1"
"145129","Villa d'Agri",,"villa-d-agri",,"IT","85050","0","0","40.37685","15.82410","0","-1"
"145130","Maschito",,"maschito",,"IT","85020","0","0","40.90755","15.82915","0","-1"
"145131","Foggiano",,"foggiano",,"IT","85025","0","0","40.95891","15.57487","0","-1"
"145132","Leonessa di Melfi",,"leonessa-di-melfi",,"IT","85025","0","0","41.07708","15.60361","0","-1"
"145133","Melfi",,"melfi",,"IT","85025","0","0","40.99750","15.65237","0","-1"
"145134","Missanello",,"missanello",,"IT","85010","0","0","40.28315","16.16689","0","-1"
"145135","Moliterno",,"moliterno",,"IT","85047","0","0","40.24281","15.86439","0","-1"
"145136","Montemilone",,"montemilone",,"IT","85020","0","0","41.03111","15.97017","0","-1"
"145137","Montemurro",,"montemurro",,"IT","85053","0","0","40.29798","15.99220","0","-1"
"145138","Capo di Giano",,"capo-di-giano",,"IT","85054","0","0","40.76060","15.49720","0","-1"
"145139","Muro Lucano",,"muro-lucano",,"IT","85054","0","0","40.75360","15.48673","0","-1"
"145140","Nemoli",,"nemoli",,"IT","85040","0","0","40.06860","15.80128","0","-1"
"145141","Noepoli",,"noepoli",,"IT","85035","0","0","40.08781","16.33065","0","-1"
"145142","Oppido Lucano",,"oppido-lucano",,"IT","85015","0","0","40.76281","15.98750","0","-1"
"145143","Palazzo San Gervasio",,"palazzo-san-gervasio",,"IT","85026","0","0","40.93141","15.98548","0","-1"
"145144","Paterno",,"paterno",,"IT","85050","0","0","40.37939","15.73378","0","-1"
"145145","Pescopagano",,"pescopagano",,"IT","85020","0","0","40.83605","15.39880","0","-1"
"145146","Picerno",,"picerno",,"IT","85055","0","0","40.64131","15.64237","0","-1"
"145147","Pietragalla",,"pietragalla",,"IT","85016","0","0","40.74765","15.88046","0","-1"
"145148","San Giorgio",,"san-giorgio",,"IT","85020","0","0","40.96046","15.58727","0","-1"
"145149","San Nicola",,"san-nicola",,"IT","85020","0","0","40.73215","15.80351","0","-1"
"145150","Pietrapertosa",,"pietrapertosa",,"IT","85010","0","0","40.51938","16.06293","0","-1"
"145151","Madonna del Pantano",,"madonna-del-pantano",,"IT","85010","0","0","40.56563","15.77174","0","-1"
"145152","Pignola",,"pignola",,"IT","85010","0","0","40.57424","15.78407","0","-1"
"145153","Rifreddo",,"rifreddo",,"IT","85010","0","0","40.57376","15.82674","0","-1"
"145154","Avigliano Scalo",,"avigliano-scalo",,"IT","85020","0","0","40.87080","15.72470","0","-1"
"145155","Giuliano",,"giuliano",,"IT","85100","0","0","40.68409","15.77250","0","-1"
"145156","Montocchio",,"montocchio",,"IT","85100","0","0","40.67376","15.75767","0","-1"
"145157","Potenza",,"potenza",,"IT","85020","0","0","40.63724","15.80222","0","-1"
"145158","Rapolla",,"rapolla",,"IT","85027","0","0","40.97672","15.67220","0","-1"
"145159","Rapone",,"rapone",,"IT","85020","0","0","40.84785","15.50202","0","-1"
"145160","Monticchio",,"monticchio",,"IT","85028","0","0","40.63951","15.81097","0","-1"
"145161","Monticchio Bagni",,"monticchio-bagni",,"IT","85028","0","0","40.95031","15.56954","0","-1"
"145162","Rionero in Vulture",,"rionero-in-vulture",,"IT","85028","0","0","40.92672","15.67096","0","-1"
"145163","Ripacandida",,"ripacandida",,"IT","85020","0","0","40.91298","15.72563","0","-1"
"145164","Rivello",,"rivello",,"IT","85040","0","0","40.07907","15.75706","0","-1"
"145165","San Costantino",,"san-costantino",,"IT","85040","0","0","40.07399","15.68827","0","-1"
"145166","Roccanova",,"roccanova",,"IT","85036","0","0","40.21315","16.20407","0","-1"
"145167","Rotonda",,"rotonda",,"IT","85048","0","0","39.95376","16.04002","0","-1"
"145168","Ruoti",,"ruoti",,"IT","85056","0","0","40.71809","15.67920","0","-1"
"145169","Ruvo del Monte",,"ruvo-del-monte",,"IT","85020","0","0","40.84985","15.54237","0","-1"
"145170","San Chirico Nuovo",,"san-chirico-nuovo",,"IT","85010","0","0","40.67750","16.08002","0","-1"
"145171","San Chirico Raparo",,"san-chirico-raparo",,"IT","85030","0","0","40.19038","16.07707","0","-1"
"145172","San Costantino Albanese",,"san-costantino-albanese",,"IT","85030","0","0","40.03689","16.30565","0","-1"
"145173","San Fele",,"san-fele",,"IT","85020","0","0","40.81837","15.54017","0","-1"
"145174","San Martino d'Agri",,"san-martino-d-agri",,"IT","85030","0","0","40.24080","16.05391","0","-1"
"145175","San Paolo Albanese",,"san-paolo-albanese",,"IT","85030","0","0","40.03424","16.33462","0","-1"
"145176","Mezzana Salice",,"mezzana-salice",,"IT","85030","0","0","39.98059","16.17740","0","-1"
"145177","San Severino Lucano",,"san-severino-lucano",,"IT","85030","0","0","40.02187","16.13904","0","-1"
"145178","Villaneto",,"villaneto",,"IT","85030","0","0","40.04349","16.19017","0","-1"
"145179","Sant'Angelo Le Fratte",,"sant-angelo-le-fratte",,"IT","85050","0","0","40.54705","15.55982","0","-1"
"145180","San Brancato",,"san-brancato",,"IT","85037","0","0","40.24846","16.27204","0","-1"
"145181","Sant'Arcangelo",,"sant-arcangelo",,"IT","85037","0","0","40.24846","16.27204","0","-1"
"145182","Sarconi",,"sarconi",,"IT","85050","0","0","40.24843","15.88963","0","-1"
"145183","Sasso di Castalda",,"sasso-di-castalda",,"IT","85050","0","0","40.48781","15.67830","0","-1"
"145184","Satriano di Lucania",,"satriano-di-lucania",,"IT","85050","0","0","40.54395","15.63916","0","-1"
"145185","Savoia di Lucania",,"savoia-di-lucania",,"IT","85050","0","0","40.56977","15.55231","0","-1"
"145186","Senise",,"senise",,"IT","85038","0","0","40.14813","16.28987","0","-1"
"145187","Spinoso",,"spinoso",,"IT","85039","0","0","40.27033","15.96752","0","-1"
"145188","Teana",,"teana",,"IT","85032","0","0","40.12783","16.15401","0","-1"
"145189","Casa del Conte",,"casa-del-conte",,"IT","85030","0","0","39.96876","16.25844","0","-1"
"145190","Terranova di Pollino",,"terranova-di-pollino",,"IT","85030","0","0","39.97837","16.29483","0","-1"
"145191","Tito",,"tito",,"IT","85050","0","0","40.58375","15.67705","0","-1"
"145192","Tito Scalo",,"tito-scalo",,"IT","85050","0","0","40.60715","15.69929","0","-1"
"145193","Tolve",,"tolve",,"IT","85017","0","0","40.69533","16.01720","0","-1"
"145194","Tramutola",,"tramutola",,"IT","85057","0","0","40.31541","15.78969","0","-1"
"145195","Piano dei Peri",,"piano-dei-peri",,"IT","85049","0","0","39.99443","15.79345","0","-1"
"145196","Trecchina",,"trecchina",,"IT","85049","0","0","40.02767","15.77565","0","-1"
"145197","Trivigno",,"trivigno",,"IT","85018","0","0","40.57986","15.98666","0","-1"
"145198","Vaglio Basilicata",,"vaglio-basilicata",,"IT","85010","0","0","40.66861","15.91893","0","-1"
"145199","Venosa",,"venosa",,"IT","85029","0","0","40.96235","15.81580","0","-1"
"145200","Mosileo",,"mosileo",,"IT","85058","0","0","40.60531","15.47611","0","-1"
"145201","Vietri di Potenza",,"vietri-di-potenza",,"IT","85058","0","0","40.60074","15.50897","0","-1"
"145202","Pedali di Viggianello",,"pedali-di-viggianello",,"IT","85040","0","0","39.99222","16.06000","0","-1"
"145203","Viggianello",,"viggianello",,"IT","85040","0","0","39.97352","16.08669","0","-1"
"145204","Viggiano",,"viggiano",,"IT","85059","0","0","40.34030","15.89785","0","-1"
"145205","Albi",,"albi",,"IT","88055","0","0","39.02502","16.59555","0","-1"
"145206","Buturo",,"buturo",,"IT","88055","0","0","39.06824","16.64104","0","-1"
"145207","San Giovanni",,"san-giovanni",,"IT","88055","0","0","39.01904","16.59489","0","-1"
"145208","Amaroni",,"amaroni",,"IT","88050","0","0","38.79424","16.44891","0","-1"
"145209","Amato",,"amato",,"IT","88040","0","0","38.94281","16.46315","0","-1"
"145210","Andali",,"andali",,"IT","88050","0","0","39.01455","16.76922","0","-1"
"145211","Argusto",,"argusto",,"IT","88060","0","0","38.68189","16.43626","0","-1"
"145212","Badolato",,"badolato",,"IT","88060","0","0","38.56923","16.52531","0","-1"
"145213","Badolato Marina",,"badolato-marina",,"IT","88060","0","0","38.57456","16.56594","0","-1"
"145214","Belcastro",,"belcastro",,"IT","88050","0","0","39.01907","16.78737","0","-1"
"145215","Borgia",,"borgia",,"IT","88021","0","0","38.82743","16.50955","0","-1"
"145216","Roccelletta",,"roccelletta",,"IT","88021","0","0","38.81720","16.59704","0","-1"
"145217","Botricello",,"botricello",,"IT","88070","0","0","38.93644","16.85693","0","-1"
"145218","Caraffa di Catanzaro",,"caraffa-di-catanzaro",,"IT","88050","0","0","38.88235","16.48641","0","-1"
"145219","Cardinale",,"cardinale",,"IT","88062","0","0","38.65099","16.38572","0","-1"
"145220","Novalba",,"novalba",,"IT","88062","0","0","38.65392","16.38396","0","-1"
"145221","Carlopoli",,"carlopoli",,"IT","88040","0","0","39.05783","16.45580","0","-1"
"145222","Castagna",,"castagna",,"IT","88040","0","0","39.05487","16.43737","0","-1"
"145223","Catanzaro",,"catanzaro",,"IT","88100","0","0","38.91060","16.58768","0","-1"
"145224","Catanzaro lido",,"catanzaro-lido",,"IT","88100","0","0","38.82077","16.61561","0","-1"
"145225","Catanzaro sala",,"catanzaro-sala",,"IT","88100","0","0","38.89825","16.60052","0","-1"
"145226","Cava di Catanzaro",,"cava-di-catanzaro",,"IT","88100","0","0","38.89753","16.62394","0","-1"
"145227","Pontegrande",,"pontegrande",,"IT","88100","0","0","38.93005","16.58144","0","-1"
"145228","Sant'Elia",,"sant-elia",,"IT","88100","0","0","38.95878","16.59002","0","-1"
"145229","Santa Maria di Catanzaro",,"santa-maria-di-catanzaro",,"IT","88100","0","0","38.86685","16.59953","0","-1"
"145230","Siano",,"siano",,"IT","88100","0","0","38.92010","16.59792","0","-1"
"145231","Cenadi",,"cenadi",,"IT","88067","0","0","38.72065","16.41815","0","-1"
"145232","Centrache",,"centrache",,"IT","88067","0","0","38.72956","16.43050","0","-1"
"145233","Cerva",,"cerva",,"IT","88050","0","0","39.02502","16.74456","0","-1"
"145234","Chiaravalle Centrale",,"chiaravalle-centrale",,"IT","88064","0","0","38.68106","16.41188","0","-1"
"145235","Cicala",,"cicala",,"IT","88040","0","0","39.02330","16.48706","0","-1"
"145236","Conflenti",,"conflenti",,"IT","88040","0","0","39.07073","16.28737","0","-1"
"145237","Conflenti Inferiore",,"conflenti-inferiore",,"IT","88040","0","0","39.07109","16.28795","0","-1"
"145238","San Mazzeo",,"san-mazzeo",,"IT","88040","0","0","39.03359","16.25716","0","-1"
"145239","Cortale",,"cortale",,"IT","88020","0","0","38.83934","16.41228","0","-1"
"145240","Cropani",,"cropani",,"IT","88050","0","0","38.96888","16.78220","0","-1"
"145241","Cropani Marina",,"cropani-marina",,"IT","88050","0","0","38.92362","16.80912","0","-1"
"145242","Cuturella",,"cuturella",,"IT","88050","0","0","38.98841","16.77926","0","-1"
"145243","Acconia",,"acconia",,"IT","88022","0","0","38.83674","16.26454","0","-1"
"145244","Curinga",,"curinga",,"IT","88022","0","0","38.82737","16.31422","0","-1"
"145245","Davoli",,"davoli",,"IT","88060","0","0","38.64844","16.48704","0","-1"
"145246","Marina di Davoli",,"marina-di-davoli",,"IT","88060","0","0","38.66797","16.54659","0","-1"
"145247","Adami",,"adami",,"IT","88041","0","0","39.07023","16.35331","0","-1"
"145248","Cerrisi",,"cerrisi",,"IT","88041","0","0","39.03691","16.36645","0","-1"
"145249","Decollatura",,"decollatura",,"IT","88041","0","0","39.04893","16.35594","0","-1"
"145250","San Bernardo",,"san-bernardo",,"IT","88041","0","0","39.05005","16.34626","0","-1"
"145251","Castiglione Marittimo",,"castiglione-marittimo",,"IT","88040","0","0","39.00341","16.17196","0","-1"
"145252","Falerna",,"falerna",,"IT","88040","0","0","39.00341","16.17196","0","-1"
"145253","Falerna Scalo",,"falerna-scalo",,"IT","88040","0","0","38.97350","16.15628","0","-1"
"145254","Feroleto Antico",,"feroleto-antico",,"IT","88040","0","0","38.96254","16.38836","0","-1"
"145255","Ievoli",,"ievoli",,"IT","88040","0","0","38.97232","16.40396","0","-1"
"145256","Fossato Serralta",,"fossato-serralta",,"IT","88050","0","0","38.99688","16.57863","0","-1"
"145257","Gagliato",,"gagliato",,"IT","88060","0","0","38.67694","16.46107","0","-1"
"145258","Gasperina",,"gasperina",,"IT","88060","0","0","38.74048","16.50703","0","-1"
"145259","Cavor√†",,"cavora",,"IT","88045","0","0","38.95778","16.55355","0","-1"
"145260","Gimigliano",,"gimigliano",,"IT","88045","0","0","38.97525","16.52951","0","-1"
"145261","Gimigliano inferiore",,"gimigliano-inferiore",,"IT","88045","0","0","38.98868","16.50506","0","-1"
"145262","Girifalco",,"girifalco",,"IT","88024","0","0","38.82531","16.42502","0","-1"
"145263","Gizzeria",,"gizzeria",,"IT","88040","0","0","38.98111","16.20424","0","-1"
"145264","Gizzeria lido",,"gizzeria-lido",,"IT","88040","0","0","38.93052","16.21650","0","-1"
"145265","Guardavalle",,"guardavalle",,"IT","88060","0","0","38.50611","16.50439","0","-1"
"145266","Guardavalle Marina",,"guardavalle-marina",,"IT","88060","0","0","38.48204","16.57735","0","-1"
"145267","Isca Marina",,"isca-marina",,"IT","88060","0","0","38.60298","16.55506","0","-1"
"145268","Isca sullo Ionio",,"isca-sullo-ionio",,"IT","88060","0","0","38.60087","16.51607","0","-1"
"145269","Jacurso",,"jacurso",,"IT","88020","0","0","38.84704","16.38088","0","-1"
"145270","Acquafredda",,"acquafredda",,"IT","88046","0","0","38.98941","16.23995","0","-1"
"145271","Bella di Lamezia terme",,"bella-di-lamezia-terme",,"IT","88046","0","0","38.97437","16.30808","0","-1"
"145272","Caronte",,"caronte",,"IT","88046","0","0","38.96861","16.26096","0","-1"
"145273","Fronti",,"fronti",,"IT","88046","0","0","38.98267","16.34956","0","-1"
"145274","Gabella",,"gabella",,"IT","88046","0","0","38.98456","16.27456","0","-1"
"145275","Lamezia Terme",,"lamezia-terme",,"IT","88046","0","0","38.97370","16.31674","0","-1"
"145276","Nicastro",,"nicastro",,"IT","88046","0","0","38.97511","16.31953","0","-1"
"145277","Sambiase",,"sambiase",,"IT","88046","0","0","38.96664","16.28331","0","-1"
"145278","San Pietro Lametino",,"san-pietro-lametino",,"IT","88046","0","0","38.93595","16.29197","0","-1"
"145279","Santa Eufemia lamezia",,"santa-eufemia-lamezia",,"IT","88046","0","0","38.92110","16.25453","0","-1"
"145280","Zangarona",,"zangarona",,"IT","88046","0","0","38.97174","16.34517","0","-1"
"145281","Magisano",,"magisano",,"IT","88050","0","0","39.01268","16.62819","0","-1"
"145282","San Pietro",,"san-pietro",,"IT","88050","0","0","38.84704","16.34439","0","-1"
"145283","Maida",,"maida",,"IT","88025","0","0","38.85938","16.36503","0","-1"
"145284","Marcedusa",,"marcedusa",,"IT","88050","0","0","39.02893","16.83720","0","-1"
"145285","Marcellinara",,"marcellinara",,"IT","88044","0","0","38.92784","16.49032","0","-1"
"145286","Martirano",,"martirano",,"IT","88040","0","0","39.08214","16.24842","0","-1"
"145287","Martirano Lombardo",,"martirano-lombardo",,"IT","88040","0","0","39.07580","16.23281","0","-1"
"145288","Miglierina",,"miglierina",,"IT","88040","0","0","38.94922","16.47275","0","-1"
"145289","Montauro",,"montauro",,"IT","88060","0","0","38.74987","16.51407","0","-1"
"145290","Montauro stazione",,"montauro-stazione",,"IT","88060","0","0","38.72866","16.54147","0","-1"
"145291","Montepaone",,"montepaone",,"IT","88060","0","0","38.72146","16.49989","0","-1"
"145292","Montepaone lido",,"montepaone-lido",,"IT","88060","0","0","38.72880","16.54147","0","-1"
"145293","Motta Santa Lucia",,"motta-santa-lucia",,"IT","88040","0","0","39.08908","16.28837","0","-1"
"145294","Marina di Nocera terinese",,"marina-di-nocera-terinese",,"IT","88040","0","0","39.00541","16.13390","0","-1"
"145295","Nocera Terinese",,"nocera-terinese",,"IT","88040","0","0","39.03645","16.15963","0","-1"
"145296","Olivadi",,"olivadi",,"IT","88067","0","0","38.72660","16.42356","0","-1"
"145297","Palermiti",,"palermiti",,"IT","88050","0","0","38.74986","16.45307","0","-1"
"145298","Pentone",,"pentone",,"IT","88050","0","0","38.98689","16.58346","0","-1"
"145299","Scoppolise",,"scoppolise",,"IT","88050","0","0","38.96471","16.58554","0","-1"
"145300","Petrizzi",,"petrizzi",,"IT","88060","0","0","38.70197","16.47272","0","-1"
"145301","Petron√†",,"petrona",,"IT","88050","0","0","39.04323","16.75820","0","-1"
"145302","Pianopoli",,"pianopoli",,"IT","88040","0","0","38.95533","16.38922","0","-1"
"145303","Platania",,"platania",,"IT","88040","0","0","39.00652","16.32097","0","-1"
"145304","San Floro",,"san-floro",,"IT","88021","0","0","38.83877","16.51953","0","-1"
"145305","San Mango d'Aquino",,"san-mango-d-aquino",,"IT","88040","0","0","39.06291","16.19423","0","-1"
"145306","San Pietro a Maida",,"san-pietro-a-maida",,"IT","88025","0","0","38.84704","16.34439","0","-1"
"145307","San Pietro Apostolo",,"san-pietro-apostolo",,"IT","88040","0","0","39.00464","16.46962","0","-1"
"145308","San Sostene",,"san-sostene",,"IT","88060","0","0","38.63845","16.48746","0","-1"
"145309","San sostene Marina",,"san-sostene-marina",,"IT","88060","0","0","38.65509","16.55507","0","-1"
"145310","San Vito sullo Ionio",,"san-vito-sullo-ionio",,"IT","88067","0","0","38.71282","16.41065","0","-1"
"145311","Sant'Andrea Apostolo dello Ionio",,"sant-andrea-apostolo-dello-ionio",,"IT","88060","0","0","38.62346","16.52967","0","-1"
"145312","Sant'Andrea ionio Marina",,"sant-andrea-ionio-marina",,"IT","88060","0","0","38.62065","16.54924","0","-1"
"145313","Santa Caterina dello Ionio",,"santa-caterina-dello-ionio",,"IT","88060","0","0","38.53343","16.52133","0","-1"
"145314","Santa Caterina dello Ionio Marina",,"santa-caterina-dello-ionio-marina",,"IT","88060","0","0","38.52765","16.56960","0","-1"
"145315","Satriano",,"satriano",,"IT","88060","0","0","38.66795","16.48207","0","-1"
"145316","Sellia",,"sellia",,"IT","88050","0","0","38.98175","16.62833","0","-1"
"145317","Calabricata",,"calabricata",,"IT","88050","0","0","38.91583","16.75211","0","-1"
"145318","La Petrizia",,"la-petrizia",,"IT","88050","0","0","38.88724","16.71465","0","-1"
"145319","Sellia Marina",,"sellia-marina",,"IT","88050","0","0","38.90639","16.74360","0","-1"
"145320","Uria",,"uria",,"IT","88050","0","0","38.91255","16.72559","0","-1"
"145321","Accaria Rosaria",,"accaria-rosaria",,"IT","88040","0","0","38.97689","16.36922","0","-1"
"145322","Angoli",,"angoli",,"IT","88040","0","0","38.97237","16.43735","0","-1"
"145323","Cancello",,"cancello",,"IT","88040","0","0","38.94031","16.43174","0","-1"
"145324","Migliuso",,"migliuso",,"IT","88040","0","0","38.95548","16.43330","0","-1"
"145325","San Michele",,"san-michele",,"IT","88040","0","0","38.96053","16.41715","0","-1"
"145326","Serrastretta",,"serrastretta",,"IT","88040","0","0","39.01878","16.42487","0","-1"
"145327","Sersale",,"sersale",,"IT","88054","0","0","39.01206","16.72792","0","-1"
"145328","Martelletto",,"martelletto",,"IT","88040","0","0","38.89245","16.53673","0","-1"
"145329","Settingiano",,"settingiano",,"IT","88040","0","0","38.91260","16.51461","0","-1"
"145330","Crichi",,"crichi",,"IT","88050","0","0","38.95607","16.64251","0","-1"
"145331","Simeri",,"simeri",,"IT","88050","0","0","38.93407","16.66223","0","-1"
"145332","Simeri Crichi",,"simeri-crichi",,"IT","88050","0","0","38.95485","16.64110","0","-1"
"145333","Sorbo San Basile",,"sorbo-san-basile",,"IT","88050","0","0","39.02014","16.56897","0","-1"
"145334","Soverato",,"soverato",,"IT","88068","0","0","38.68779","16.54995","0","-1"
"145335","Soverato Marina",,"soverato-marina",,"IT","88068","0","0","38.68610","16.55080","0","-1"
"145336","Soverato Superiore",,"soverato-superiore",,"IT","88068","0","0","38.69091","16.53424","0","-1"
"145337","Colla",,"colla",,"IT","88049","0","0","39.00579","16.47593","0","-1"
"145338","San Tommaso",,"san-tommaso",,"IT","88049","0","0","39.08634","16.37971","0","-1"
"145339","Soveria Mannelli",,"soveria-mannelli",,"IT","88049","0","0","39.08391","16.37283","0","-1"
"145340","Soveria Simeri",,"soveria-simeri",,"IT","88050","0","0","38.94777","16.67879","0","-1"
"145341","Squillace",,"squillace",,"IT","88069","0","0","38.78065","16.51315","0","-1"
"145342","Squillace lido",,"squillace-lido",,"IT","88069","0","0","38.77948","16.56806","0","-1"
"145343","Copanello",,"copanello",,"IT","88069","0","0","38.76716","16.56546","0","-1"
"145344","Stalett√¨",,"staletti",,"IT","88069","0","0","38.76398","16.54085","0","-1"
"145345","Taverna",,"taverna",,"IT","88055","0","0","39.02102","16.58267","0","-1"
"145346","Villaggio Mancuso",,"villaggio-mancuso",,"IT","88055","0","0","39.07668","16.56042","0","-1"
"145347","Villaggio Racise",,"villaggio-racise",,"IT","88055","0","0","39.09293","16.54432","0","-1"
"145348","Pratora",,"pratora",,"IT","88040","0","0","38.91229","16.53470","0","-1"
"145349","Tiriolo",,"tiriolo",,"IT","88040","0","0","38.94933","16.51023","0","-1"
"145350","Torre di Ruggiero",,"torre-di-ruggiero",,"IT","88060","0","0","38.65623","16.36728","0","-1"
"145351","Vallefiorita",,"vallefiorita",,"IT","88050","0","0","38.77497","16.45977","0","-1"
"145352","Zagarise",,"zagarise",,"IT","88050","0","0","39.00071","16.66456","0","-1"
"145353","Acquaformosa",,"acquaformosa",,"IT","87010","0","0","39.72424","16.09080","0","-1"
"145354","Acquappesa",,"acquappesa",,"IT","87020","0","0","39.49508","15.95353","0","-1"
"145355","Acquappesa Marina",,"acquappesa-marina",,"IT","87020","0","0","39.49373","15.95146","0","-1"
"145356","Intavolata",,"intavolata",,"IT","87020","0","0","39.48157","15.95956","0","-1"
"145357","Acri",,"acri",,"IT","87040","0","0","39.49101","16.38615","0","-1"
"145358","Duglia",,"duglia",,"IT","87041","0","0","39.51189","16.39002","0","-1"
"145359","Montagnola",,"montagnola",,"IT","87041","0","0","39.49531","16.43065","0","-1"
"145360","San Giacomo d'Acri",,"san-giacomo-d-acri",,"IT","87040","0","0","39.52735","16.46391","0","-1"
"145361","Serricella",,"serricella",,"IT","87041","0","0","39.42407","16.01954","0","-1"
"145362","Aiello Calabro",,"aiello-calabro",,"IT","87031","0","0","39.11720","16.16685","0","-1"
"145363","Aieta",,"aieta",,"IT","87020","0","0","39.92893","15.82439","0","-1"
"145364","Albidona",,"albidona",,"IT","87070","0","0","39.92378","16.47111","0","-1"
"145365","Alessandria del Carretto",,"alessandria-del-carretto",,"IT","87070","0","0","39.95939","16.38094","0","-1"
"145366","Altilia",,"altilia",,"IT","87040","0","0","39.12869","16.25309","0","-1"
"145367","Maione",,"maione",,"IT","87040","0","0","39.13391","16.24391","0","-1"
"145368","Altomonte",,"altomonte",,"IT","87042","0","0","39.69930","16.13127","0","-1"
"145369","Amantea",,"amantea",,"IT","87032","0","0","39.13422","16.07548","0","-1"
"145370","Amantea Marina",,"amantea-marina",,"IT","87032","0","0","39.16255","16.06669","0","-1"
"145371","Campora San giovanni",,"campora-san-giovanni",,"IT","87032","0","0","39.06744","16.09266","0","-1"
"145372","Corica",,"corica",,"IT","87032","0","0","39.08485","16.08987","0","-1"
"145373","Amendolara",,"amendolara",,"IT","87071","0","0","39.95299","16.58231","0","-1"
"145374","Amendolara Marina",,"amendolara-marina",,"IT","87071","0","0","39.94110","16.60908","0","-1"
"145375","Aprigliano",,"aprigliano",,"IT","87051","0","0","39.23969","16.34064","0","-1"
"145376","Camarda di Aprigliano",,"camarda-di-aprigliano",,"IT","87051","0","0","39.21141","16.45512","0","-1"
"145377","Vico",,"vico",,"IT","87051","0","0","39.24172","16.33031","0","-1"
"145378","Belmonte Calabro",,"belmonte-calabro",,"IT","87033","0","0","39.16248","16.08547","0","-1"
"145379","Belmonte calabro Marina",,"belmonte-calabro-marina",,"IT","87033","0","0","39.16255","16.06669","0","-1"
"145380","Vadi",,"vadi",,"IT","87033","0","0","39.16076","16.10690","0","-1"
"145381","Belsito",,"belsito",,"IT","87030","0","0","39.17830","16.28924","0","-1"
"145382","Belvedere Marittimo",,"belvedere-marittimo",,"IT","87021","0","0","39.61891","15.86250","0","-1"
"145383","Laise",,"laise",,"IT","87021","0","0","39.63305","15.87589","0","-1"
"145384","Marina di Belvedere Marittimo",,"marina-di-belvedere-marittimo",,"IT","87021","0","0","39.64498","15.84162","0","-1"
"145385","Bianchi",,"bianchi",,"IT","87050","0","0","39.10204","16.41099","0","-1"
"145386","Bisignano",,"bisignano",,"IT","87043","0","0","39.51260","16.28719","0","-1"
"145387","Bocchigliero",,"bocchigliero",,"IT","87060","0","0","39.42096","16.74985","0","-1"
"145388","Bonifati",,"bonifati",,"IT","87020","0","0","39.58579","15.89901","0","-1"
"145389","Cittadella del Capo",,"cittadella-del-capo",,"IT","87020","0","0","39.55913","15.87784","0","-1"
"145390","Torrevecchia",,"torrevecchia",,"IT","87020","0","0","39.55497","15.89955","0","-1"
"145391","Buonvicino",,"buonvicino",,"IT","87020","0","0","39.69025","15.88350","0","-1"
"145392","Calopezzati",,"calopezzati",,"IT","87060","0","0","39.56235","16.80288","0","-1"
"145393","Marinella",,"marinella",,"IT","87060","0","0","39.42065","16.24174","0","-1"
"145394","Caloveto",,"caloveto",,"IT","87060","0","0","39.50628","16.76080","0","-1"
"145395","Campana",,"campana",,"IT","87061","0","0","39.41470","16.82315","0","-1"
"145396","Canna",,"canna",,"IT","87070","0","0","40.09502","16.50517","0","-1"
"145397","Cariati",,"cariati",,"IT","87062","0","0","39.49330","16.96033","0","-1"
"145398","Cariati Marina",,"cariati-marina",,"IT","87062","0","0","39.49996","16.94484","0","-1"
"145399","Carolei",,"carolei",,"IT","87030","0","0","39.25443","16.21953","0","-1"
"145400","Vadue",,"vadue",,"IT","87030","0","0","39.28252","16.23017","0","-1"
"145401","Carpanzano",,"carpanzano",,"IT","87050","0","0","39.14820","16.30403","0","-1"
"145402","Casole Bruzio",,"casole-bruzio",,"IT","87050","0","0","39.28548","16.33735","0","-1"
"145403","Cassano all'Ionio",,"cassano-all-ionio",,"IT","87011","0","0","39.78535","16.31828","0","-1"
"145404","Doria",,"doria",,"IT","87011","0","0","39.73128","16.35643","0","-1"
"145405","Lattughelle",,"lattughelle",,"IT","87011","0","0","39.71633","16.46917","0","-1"
"145406","Lauropoli",,"lauropoli",,"IT","87011","0","0","39.78535","16.31828","0","-1"
"145407","Pianoscafo",,"pianoscafo",,"IT","87011","0","0","39.71720","16.47031","0","-1"
"145408","Sibari",,"sibari",,"IT","87011","0","0","39.74830","16.45424","0","-1"
"145409","Sibari stazione",,"sibari-stazione",,"IT","87011","0","0","39.74830","16.45424","0","-1"
"145410","Castiglione Cosentino",,"castiglione-cosentino",,"IT","87040","0","0","39.35113","16.28625","0","-1"
"145411","Andreotta",,"andreotta",,"IT","87040","0","0","39.30922","16.21846","0","-1"
"145412","Castrolibero",,"castrolibero",,"IT","87040","0","0","39.30865","16.19450","0","-1"
"145413","Ortomatera",,"ortomatera",,"IT","87040","0","0","39.32768","16.21704","0","-1"
"145414","Castroregio",,"castroregio",,"IT","87070","0","0","39.99344","16.47844","0","-1"
"145415","Farneta",,"farneta",,"IT","87070","0","0","40.01457","16.40320","0","-1"
"145416","Castrovillari",,"castrovillari",,"IT","87012","0","0","39.81242","16.20256","0","-1"
"145417","Vigne di Castrovillari",,"vigne-di-castrovillari",,"IT","87012","0","0","39.82084","16.20641","0","-1"
"145418","Celico",,"celico",,"IT","87052","0","0","39.31128","16.34080","0","-1"
"145419","Fago del soldato",,"fago-del-soldato",,"IT","87052","0","0","39.35393","16.40783","0","-1"
"145420","Cellara",,"cellara",,"IT","87050","0","0","39.21946","16.33540","0","-1"
"145421","Cerchiara di Calabria",,"cerchiara-di-calabria",,"IT","87070","0","0","39.86060","16.38316","0","-1"
"145422","Piana di Cerchiara",,"piana-di-cerchiara",,"IT","87070","0","0","39.82971","16.42819","0","-1"
"145423","Cerisano",,"cerisano",,"IT","87044","0","0","39.27720","16.17626","0","-1"
"145424","Cervicati",,"cervicati",,"IT","87010","0","0","39.54361","16.12924","0","-1"
"145425","Cavallerizzo",,"cavallerizzo",,"IT","87040","0","0","39.51597","16.11198","0","-1"
"145426","Cerzeto",,"cerzeto",,"IT","87040","0","0","39.50893","16.11596","0","-1"
"145427","San Giacomo",,"san-giacomo",,"IT","87040","0","0","39.57754","16.81724","0","-1"
"145428","Battendieri",,"battendieri",,"IT","87022","0","0","39.50422","15.97344","0","-1"
"145429","Cetraro",,"cetraro",,"IT","87022","0","0","39.51763","15.94204","0","-1"
"145430","Cetraro Marina",,"cetraro-marina",,"IT","87022","0","0","39.51561","15.93716","0","-1"
"145431","San Filippo",,"san-filippo",,"IT","87022","0","0","39.78533","15.83002","0","-1"
"145432","Sant'Angelo",,"sant-angelo",,"IT","87022","0","0","39.55516","15.95272","0","-1"
"145433","Civita",,"civita",,"IT","87010","0","0","39.82975","16.30912","0","-1"
"145434","Cleto",,"cleto",,"IT","87030","0","0","39.09126","16.15922","0","-1"
"145435","Savuto",,"savuto",,"IT","87030","0","0","39.07188","16.16534","0","-1"
"145436","Colosimi",,"colosimi",,"IT","87050","0","0","39.12019","16.39710","0","-1"
"145437","Cantinella",,"cantinella",,"IT","87060","0","0","39.66580","16.44970","0","-1"
"145438","Corigliano Calabro",,"corigliano-calabro",,"IT","87060","0","0","39.59611","16.51861","0","-1"
"145439","Corigliano calabro stazione",,"corigliano-calabro-stazione",,"IT","87064","0","0","39.62462","16.51369","0","-1"
"145440","Corigliano Scalo",,"corigliano-scalo",,"IT","87064","0","0","39.62735","16.51407","0","-1"
"145441","Fabrizio",,"fabrizio",,"IT","87064","0","0","39.63922","16.55206","0","-1"
"145442","Marina di Schiavonea",,"marina-di-schiavonea",,"IT","87064","0","0","39.65014","16.53977","0","-1"
"145443","Schiavonea",,"schiavonea",,"IT","87064","0","0","39.59611","16.51861","0","-1"
"145444","Villaggio Frasso",,"villaggio-frasso",,"IT","87064","0","0","39.64315","16.48315","0","-1"
"145445","Borgo Partenope",,"borgo-partenope",,"IT","87100","0","0","39.27105","16.30409","0","-1"
"145446","Cosenza",,"cosenza",,"IT","87100","0","0","39.29826","16.25381","0","-1"
"145447","Donnici Inferiore",,"donnici-inferiore",,"IT","87100","0","0","39.25026","16.29240","0","-1"
"145448","Donnici Superiore",,"donnici-superiore",,"IT","87100","0","0","39.25047","16.30143","0","-1"
"145449","Sant'ippolito di Cosenza",,"sant-ippolito-di-cosenza",,"IT","87100","0","0","39.26783","16.29548","0","-1"
"145450","Cropalati",,"cropalati",,"IT","87060","0","0","39.51763","16.72670","0","-1"
"145451","Crosia",,"crosia",,"IT","87060","0","0","39.56795","16.77280","0","-1"
"145452","Mirto",,"mirto",,"IT","87060","0","0","39.60569","16.76888","0","-1"
"145453","Cirella",,"cirella",,"IT","87023","0","0","39.71563","15.81033","0","-1"
"145454","Diamante",,"diamante",,"IT","87023","0","0","39.67717","15.82511","0","-1"
"145455","Dipignano",,"dipignano",,"IT","87045","0","0","39.23861","16.25391","0","-1"
"145456","Laurignano",,"laurignano",,"IT","87045","0","0","39.27821","16.23997","0","-1"
"145457","Tessano",,"tessano",,"IT","87045","0","0","39.25653","16.24196","0","-1"
"145458","Domanico",,"domanico",,"IT","87030","0","0","39.22021","16.20665","0","-1"
"145459","Fagnano Castello",,"fagnano-castello",,"IT","87013","0","0","39.56600","16.05428","0","-1"
"145460","Falconara Albanese",,"falconara-albanese",,"IT","87030","0","0","39.27703","16.09263","0","-1"
"145461","Torremezzo di Falconara",,"torremezzo-di-falconara",,"IT","87030","0","0","39.27031","16.05815","0","-1"
"145462","Figline Vegliaturo",,"figline-vegliaturo",,"IT","87050","0","0","39.22631","16.33029","0","-1"
"145463","Firmo",,"firmo",,"IT","87010","0","0","39.72252","16.17111","0","-1"
"145464","Fiumefreddo Bruzio",,"fiumefreddo-bruzio",,"IT","87030","0","0","39.23548","16.07048","0","-1"
"145465","Marina di Fiumefreddo Bruzio",,"marina-di-fiumefreddo-bruzio",,"IT","87030","0","0","39.23609","16.06507","0","-1"
"145466","Reggio",,"reggio",,"IT","87030","0","0","39.23204","16.06237","0","-1"
"145467","San Biase",,"san-biase",,"IT","87030","0","0","39.22500","16.09065","0","-1"
"145468","Scornavacca",,"scornavacca",,"IT","87030","0","0","39.23204","16.06237","0","-1"
