"id","name","french_name","norm_name","norm_french_name","country_code","postal_code","zone1","zone2","lat","lng","note","url_unique"
"1","Bourg-en-Bresse",,"bourg-en-bresse",,"FR","01000","22","23","46.20483","5.22550","42333","1"
"2","Saint-Denis-lès-Bourg",,"saint-denis-les-bourg",,"FR","01000","22","23","46.20244","5.18994","5187","1"
"3","Montmerle-sur-Saône",,"montmerle-sur-saone",,"FR","01090","22","23","46.08075","4.75884","3786","1"
"4","Guéreins",,"guereins",,"FR","01090","22","23","46.10869","4.77970","1208","1"
"5","Francheleins",,"francheleins",,"FR","01090","22","23","46.07366","4.80869","1153","1"
"6","Montceaux",,"montceaux",,"FR","01090","22","23","46.09641","4.79657","1074","1"
"7","Genouilleux",,"genouilleux",,"FR","01090","22","23","46.11914","4.78628","550","1"
"8","Lurcy",,"lurcy",,"FR","01090","22","23","46.06351","4.78248","390","1"
"9","Oyonnax",,"oyonnax",,"FR","01100","22","23","46.25749","5.65584","24247","1"
"10","Bellignat",,"bellignat",,"FR","01100","22","23","46.24172","5.62807","3677","1"
"11","Arbent",,"arbent",,"FR","01100","22","23","46.29274","5.67720","3607","1"
"12","Martignat",,"martignat",,"FR","01100","22","23","46.20872","5.61005","1575","1"
"13","Apremont",,"apremont",,"FR","01100","22","23","46.20739","5.65818","1366","0"
"14","Groissiat",,"groissiat",,"FR","01100","22","23","46.22147","5.60736","1115","1"
"15","Géovreisset",,"geovreisset",,"FR","01100","22","23","46.25573","5.61716","901","1"
"16","Veyziat",,"veyziat",,"FR","01100","22","23","46.27170","5.62831","302","1"
"17","Hauteville-Lompnes",,"hauteville-lompnes",,"FR","01110","22","23","45.97661","5.60255","4259","1"
"18","Cormaranche-en-Bugey",,"cormaranche-en-bugey",,"FR","01110","22","23","45.95405","5.61253","902","1"
"19","Brénod",,"brenod",,"FR","01110","22","23","46.06079","5.60615","529","1"
"20","Champdor",,"champdor",,"FR","01110","22","23","46.01727","5.59713","451","1"
"21","Thézillieu",,"thezillieu",,"FR","01110","22","23","45.89358","5.59698","314","1"
"22","Aranc",,"aranc",,"FR","01110","22","23","46.00335","5.50856","298","1"
"23","Corcelles",,"corcelles",,"FR","01110","22","23","46.03636","5.57491","208","0"
"24","Corlier",,"corlier",,"FR","01110","22","23","46.03035","5.49864","110","1"
"25","Hostiaz",,"hostiaz",,"FR","01110","22","23","45.90220","5.53389","77","1"
"26","Prémillieu",,"premillieu",,"FR","01110","22","23","45.87409","5.57184","35","1"
"27","Montluel",,"montluel",,"FR","01120","22","23","45.85129","5.05587","6690","1"
"28","Dagneux",,"dagneux",,"FR","01120","22","23","45.85074","5.07529","3979","1"
"29","La Boisse",,"la-boisse",,"FR","01120","22","23","45.84162","5.03557","2814","1"
"30","Thil",,"thil",,"FR","01120","22","23","45.81449","5.02141","1642","0"
"31","Niévroz",,"nievroz",,"FR","01120","22","23","45.82628","5.06386","1500","1"
"32","Pizay",,"pizay",,"FR","01120","22","23","45.88990","5.09185","763","1"
"33","Sainte-Croix",,"sainte-croix",,"FR","01120","22","23","45.89370","5.05319","346","0"
"34","Cordieux",,"cordieux",,"FR","01120","22","23","45.85190","5.05780","133","1"
"35","Nantua",,"nantua",,"FR","01130","22","23","46.15177","5.60715","3840","0"
"36","Les Neyrolles",,"les-neyrolles",,"FR","01130","22","23","46.14008","5.63386","698","1"
"37","Saint-Germain-de-Joux",,"saint-germain-de-joux",,"FR","01130","22","23","46.17809","5.73842","511","1"
"38","Echallon",,"echallon",,"FR","01130","22","23","46.21443","5.73829","455","1"
"39","Le Poizat",,"le-poizat",,"FR","01130","22","23","46.14461","5.69557","413","1"
"40","Belleydoux",,"belleydoux",,"FR","01130","22","23","46.25311","5.77789","310","1"
"41","Charix",,"charix",,"FR","01130","22","23","46.18314","5.68500","304","1"
"42","Lalleyriat",,"lalleyriat",,"FR","01130","22","23","46.15334","5.71330","232","1"
"43","Giron",,"giron",,"FR","01130","22","23","46.22574","5.77366","137","1"
"44","Plagne",,"plagne",,"FR","01130","22","23","46.19142","5.72787","98","0"
"45","Saint-Didier-sur-Chalaronne",,"saint-didier-sur-chalaronne",,"FR","01140","22","23","46.17746","4.81689","2629","1"
"46","Thoissey",,"thoissey",,"FR","01140","22","23","46.17279","4.80343","1484","1"
"47","Mogneneins",,"mogneneins",,"FR","01140","22","23","46.14008","4.81128","672","1"
"48","Garnerans",,"garnerans",,"FR","01140","22","23","46.20603","4.84084","643","1"
"49","Illiat",,"illiat",,"FR","01140","22","23","46.18981","4.88835","535","1"
"50","Peyzieux-sur-Saône",,"peyzieux-sur-saone",,"FR","01140","22","23","46.12666","4.81639","356","1"
"51","Valeins",,"valeins",,"FR","01140","22","23","46.11202","4.87095","95","1"
"52","Saint-Etienne-sur-Chalaronne",,"saint-etienne-sur-chalaronne",,"FR","01140","22","23","46.14773","4.86589","48","1"
"53","Lagnieu",,"lagnieu",,"FR","01150","22","23","45.90381","5.34694","6780","1"
"54","Chazey-sur-Ain",,"chazey-sur-ain",,"FR","01150","22","23","45.89355","5.25425","1365","1"
"55","Leyment",,"leyment",,"FR","01150","22","23","45.92291","5.29612","1207","1"
"56","Vaux-en-Bugey",,"vaux-en-bugey",,"FR","01150","22","23","45.92837","5.35544","1117","1"
"57","Saint-Sorlin-en-Bugey",,"saint-sorlin-en-bugey",,"FR","01150","22","23","45.88358","5.37213","1114","1"
"58","Villebois",,"villebois",,"FR","01150","22","23","45.84896","5.43457","1104","1"
"59","Sault-Brénaz",,"sault-brenaz",,"FR","01150","22","23","45.85616","5.40696","1055","1"
"60","Blyes",,"blyes",,"FR","01150","22","23","45.84905","5.24842","935","1"
"61","Saint-Vulbas",,"saint-vulbas",,"FR","01150","22","23","45.83452","5.29176","889","1"
"62","Sainte-Julie",,"sainte-julie",,"FR","01150","22","23","45.89014","5.27759","796","1"
"63","Souclin",,"souclin",,"FR","01150","22","23","45.87660","5.41688","256","1"
"64","Pont-d'Ain",,"pont-d-ain",,"FR","01160","22","23","46.04905","5.33585","2532","1"
"65","Neuville-sur-Ain",,"neuville-sur-ain",,"FR","01160","22","23","46.08150","5.37130","1485","1"
"66","Priay",,"priay",,"FR","01160","22","23","46.00358","5.28802","1420","1"
"67","Druillat",,"druillat",,"FR","01160","22","23","46.05932","5.31728","1112","1"
"68","Varambon",,"varambon",,"FR","01160","22","23","46.04075","5.31712","552","1"
"69","La Tranclière",,"la-trancliere",,"FR","01160","22","23","46.11119","5.26115","312","1"
"70","Saint-Martin-du-Mont",,"saint-martin-du-mont",,"FR","01160","22","23","46.10216","5.32820","165","0"
"71","Gex",,"gex",,"FR","01170","22","23","46.33219","6.05790","9544","1"
"72","Cessy",,"cessy",,"FR","01170","22","23","46.31847","6.06874","3336","1"
"73","Crozet",,"crozet",,"FR","01170","22","23","46.28097","6.01291","1736","1"
"74","Ségny",,"segny",,"FR","01170","22","23","46.29756","6.07359","1561","1"
"75","Vesancy",,"vesancy",,"FR","01170","22","23","46.34753","6.08848","527","1"
"76","Mijoux",,"mijoux",,"FR","01170","22","23","46.36625","5.99627","386","0"
"77","Echenevex",,"echenevex",,"FR","01170","22","23","46.30915","6.03958","97","1"
"78","Chevry",,"chevry",,"FR","01170","22","23","46.28196","6.04243","78","0"
"79","Pont-de-Vaux",,"pont-de-vaux",,"FR","01190","22","23","46.43073","4.93780","2161","1"
"80","Saint-Etienne-sur-Reyssouze",,"saint-etienne-sur-reyssouze",,"FR","01190","22","23","46.41505","4.99831","1404","1"
"81","Saint-Bénigne",,"saint-benigne",,"FR","01190","22","23","46.43889","4.97160","1097","1"
"82","Reyssouze",,"reyssouze",,"FR","01190","22","23","46.43196","4.92023","871","1"
"83","Chevroux",,"chevroux",,"FR","01190","22","23","46.37901","4.94770","835","0"
"84","Gorrevod",,"gorrevod",,"FR","01190","22","23","46.42000","4.93892","670","1"
"85","Chavannes-sur-Reyssouze",,"chavannes-sur-reyssouze",,"FR","01190","22","23","46.42959","4.99119","664","1"
"86","Sermoyer",,"sermoyer",,"FR","01190","22","23","46.49707","4.97992","646","1"
"87","Ozan",,"ozan",,"FR","01190","22","23","46.39218","4.91519","515","1"
"88","Boz",,"boz",,"FR","01190","22","23","46.40703","4.91058","491","1"
"89","Arbigny",,"arbigny",,"FR","01190","22","23","46.47007","4.96254","360","1"
"90","Boissey",,"boissey",,"FR","01190","22","23","46.38131","4.99615","169","0"
"91","Bellegarde-sur-Valserine",,"bellegarde-sur-valserine",,"FR","01200","22","23","46.10784","5.82712","11821","1"
"92","Châtillon-en-Michaille",,"chatillon-en-michaille",,"FR","01200","22","23","46.14323","5.80010","3040","1"
"93","Lancrans",,"lancrans",,"FR","01200","22","23","46.12487","5.83477","1036","1"
"94","Injoux-Génissiat",,"injoux-genissiat",,"FR","01200","22","23","46.05810","5.77211","966","1"
"95","Eloise",,"eloise",,"FR","01200","22","23","46.08011","5.85980","964","1"
"96","Confort",,"confort",,"FR","01200","22","23","46.14996","5.82300","536","1"
"97","Léaz",,"leaz",,"FR","01200","22","23","46.09840","5.88404","509","1"
"98","Billiat",,"billiat",,"FR","01200","22","23","46.07758","5.78403","446","1"
"99","Chézery-Forens",,"chezery-forens",,"FR","01200","22","23","46.22241","5.86685","412","0"
"100","Villes",,"villes",,"FR","01200","22","23","46.08889","5.78506","348","1"
"101","Montanges",,"montanges",,"FR","01200","22","23","46.16560","5.80070","337","1"
"102","Ferney-Voltaire",,"ferney-voltaire",,"FR","01210","22","23","46.25677","6.10966","7891","1"
"103","Ornex",,"ornex",,"FR","01210","22","23","46.27228","6.09651","3168","1"
"104","Versonnex",,"versonnex",,"FR","01210","22","23","46.30374","6.09777","460","0"
"105","Divonne-les-Bains",,"divonne-les-bains",,"FR","01220","22","23","46.35744","6.14315","7606","1"
"106","Sauverny",,"sauverny",,"FR","01220","22","23","46.31565","6.11515","1164","0"
"107","Grilly",,"grilly",,"FR","01220","22","23","46.33030","6.11460","699","1"
"108","Saint-Rambert-en-Bugey",,"saint-rambert-en-bugey",,"FR","01230","22","23","45.94887","5.43968","2208","1"
"109","Tenay",,"tenay",,"FR","01230","22","23","45.91958","5.50819","1120","1"
"110","Torcieu",,"torcieu",,"FR","01230","22","23","45.92182","5.39529","670","1"
"111","Argis",,"argis",,"FR","01230","22","23","45.93380","5.49098","429","1"
"112","Evosges",,"evosges",,"FR","01230","22","23","45.96075","5.49985","193","1"
"113","Arandas",,"arandas",,"FR","01230","22","23","45.89571","5.48790","156","1"
"114","Cleyzieu",,"cleyzieu",,"FR","01230","22","23","45.90825","5.42834","137","1"
"115","Nivollet-Montgriffon",,"nivollet-montgriffon",,"FR","01230","22","23","46.00298","5.47261","129","1"
"116","Chaley",,"chaley",,"FR","01230","22","23","45.95504","5.53169","123","1"
"117","Conand",,"conand",,"FR","01230","22","23","45.89236","5.47256","106","1"
"118","Oncieu",,"oncieu",,"FR","01230","22","23","45.95963","5.47430","92","1"
"119","Certines",,"certines",,"FR","01240","22","23","46.13272","5.26460","1446","1"
"120","Saint-Paul-de-Varax",,"saint-paul-de-varax",,"FR","01240","22","23","46.09890","5.12897","1439","1"
"121","Dompierre-sur-Veyle",,"dompierre-sur-veyle",,"FR","01240","22","23","46.07221","5.20541","1171","1"
"122","Marlieux",,"marlieux",,"FR","01240","22","23","46.06505","5.07441","821","1"
"123","Saint-André-le-Bouchoux",,"saint-andre-le-bouchoux",,"FR","01240","22","23","46.11707","5.07867","308","1"
"124","La Chapelle-du-Châtelard",,"la-chapelle-du-chatelard",,"FR","01240","22","23","46.06921","5.02412","278","1"
"125","Saint-Germain-sur-Renon",,"saint-germain-sur-renon",,"FR","01240","22","23","46.08027","5.05652","245","1"
"126","Lent",,"lent",,"FR","01240","22","23","46.11977","5.19507","129","0"
"127","Ceyzériat",,"ceyzeriat",,"FR","01250","22","23","46.17776","5.32456","2641","1"
"128","Montagnat",,"montagnat",,"FR","01250","22","23","46.17105","5.28585","1600","1"
"129","Jasseron",,"jasseron",,"FR","01250","22","23","46.21233","5.32539","1403","1"
"130","Tossiat",,"tossiat",,"FR","01250","22","23","46.14097","5.31631","1361","1"
"131","Villereversure",,"villereversure",,"FR","01250","22","23","46.18532","5.38258","1287","1"
"132","Cize",,"cize",,"FR","01250","22","23","46.20478","5.44477","846","0"
"133","Bohas-Meyriat-Rignat",,"bohas-meyriat-rignat",,"FR","01250","22","23","46.14140","5.35602","829","1"
"134","Hautecourt-Romanèche",,"hautecourt-romaneche",,"FR","01250","22","23","46.15950","5.41731","744","1"
"135","Simandre-sur-Suran",,"simandre-sur-suran",,"FR","01250","22","23","46.22618","5.41752","671","1"
"136","Revonnas",,"revonnas",,"FR","01250","22","23","46.16279","5.32972","640","1"
"137","Chavannes-sur-Suran",,"chavannes-sur-suran",,"FR","01250","22","23","46.26348","5.42659","628","1"
"138","Corveissiat",,"corveissiat",,"FR","01250","22","23","46.24382","5.48246","514","1"
"139","Journans",,"journans",,"FR","01250","22","23","46.14463","5.33469","340","1"
"140","Ramasse",,"ramasse",,"FR","01250","22","23","46.19157","5.36589","269","1"
"141","Rignat",,"rignat",,"FR","01250","22","23","46.14140","5.35602","266","1"
"142","Drom",,"drom",,"FR","01250","22","23","46.21822","5.36702","171","0"
"143","Saint-Just",,"saint-just",,"FR","01250","22","23","46.18996","5.27881","149","0"
"144","Germagnat",,"germagnat",,"FR","01250","22","23","46.30994","5.44991","137","1"
"145","Grand-Corent",,"grand-corent",,"FR","01250","22","23","46.20163","5.43187","134","1"
"146","Pouillat",,"pouillat",,"FR","01250","22","23","46.32778","5.42855","78","1"
"147","Champagne-en-Valromey",,"champagne-en-valromey",,"FR","01260","22","23","45.90476","5.67845","710","1"
"148","Belmont-Luthézieu",,"belmont-luthezieu",,"FR","01260","22","23","45.88052","5.66099","476","1"
"149","Vieu",,"vieu",,"FR","01260","22","23","45.89735","5.68226","375","1"
"150","Virieu-le-Petit",,"virieu-le-petit",,"FR","01260","22","23","45.90904","5.72505","314","1"
"151","Hotonnes",,"hotonnes",,"FR","01260","22","23","45.99797","5.69425","312","1"
"152","Sutrieu",,"sutrieu",,"FR","01260","22","23","45.95028","5.65774","225","1"
"153","Ruffieu",,"ruffieu",,"FR","01260","22","23","45.99471","5.66382","178","1"
"154","Le Petit-Abergement",,"le-petit-abergement",,"FR","01260","22","23","46.03146","5.66594","150","1"
"155","Songieu",,"songieu",,"FR","01260","22","23","45.97336","5.70156","122","1"
"156","Le Grand-Abergement",,"le-grand-abergement",,"FR","01260","22","23","46.03448","5.67416","109","1"
"157","Lompnieu",,"lompnieu",,"FR","01260","22","23","45.96170","5.66022","107","1"
"158","Brénaz",,"brenaz",,"FR","01260","22","23","45.94751","5.72273","98","1"
"159","Lochieu",,"lochieu",,"FR","01260","22","23","45.93066","5.72786","90","1"
"160","Coligny",,"coligny",,"FR","01270","22","23","46.38325","5.34544","1171","1"
"161","Beaupont",,"beaupont",,"FR","01270","22","23","46.41113","5.26444","563","1"
"162","Villemotier",,"villemotier",,"FR","01270","22","23","46.34629","5.32080","539","1"
"163","Domsure",,"domsure",,"FR","01270","22","23","46.41955","5.29546","468","1"
"164","Pirajoux",,"pirajoux",,"FR","01270","22","23","46.37093","5.29880","318","1"
"165","Salavre",,"salavre",,"FR","01270","22","23","46.36444","5.34738","294","1"
"166","Verjon",,"verjon",,"FR","01270","22","23","46.34676","5.34961","246","1"
"167","Prévessin-Moëns",,"prevessin-moens",,"FR","01280","22","23","46.25451","6.08123","4995","1"
"168","Grièges",,"grieges",,"FR","01290","22","23","46.25499","4.85143","1762","1"
"169","Crottet",,"crottet",,"FR","01290","22","23","46.27802","4.89327","1691","0"
"170","Pont-de-Veyle",,"pont-de-veyle",,"FR","01290","22","23","46.26361","4.88849","1594","1"
"171","Laiz",,"laiz",,"FR","01290","22","23","46.24561","4.89272","1129","1"
"172","Saint-Jean-sur-Veyle",,"saint-jean-sur-veyle",,"FR","01290","22","23","46.25724","4.91490","1043","1"
"173","Cormoranche-sur-Saône",,"cormoranche-sur-saone",,"FR","01290","22","23","46.24030","4.83136","1038","1"
"174","Cruzilles-lès-Mépillat",,"cruzilles-les-mepillat",,"FR","01290","22","23","46.22400","4.88184","795","1"
"175","Bey",,"bey",,"FR","01290","22","23","46.21997","4.84591","763","0"
"176","Biziat",,"biziat",,"FR","01290","22","23","46.21663","4.94366","759","1"
"177","Saint-André-d'Huiriat",,"saint-andre-d-huiriat",,"FR","01290","22","23","46.21358","4.91223","503","1"
"178","Belley",,"belley",,"FR","01300","22","23","45.76031","5.68644","8888","1"
"179","Brens",,"brens",,"FR","01300","22","23","45.72064","5.69529","2016","0"
"180","Cuzieu",,"cuzieu",,"FR","01300","22","23","45.81725","5.68397","1498","0"
"181","Peyrieu",,"peyrieu",,"FR","01300","22","23","45.67824","5.67592","818","1"
"182","Virignin",,"virignin",,"FR","01300","22","23","45.71525","5.71250","749","1"
"183","Saint-Benoît",,"saint-benoit",,"FR","01300","22","23","45.69422","5.58750","725","0"
"184","Chazey-Bons",,"chazey-bons",,"FR","01300","22","23","45.77650","5.68471","719","1"
"185","Brégnier-Cordon",,"bregnier-cordon",,"FR","01300","22","23","45.62520","5.62968","699","1"
"186","Massignieu-de-Rives",,"massignieu-de-rives",,"FR","01300","22","23","45.75442","5.76650","579","1"
"187","Nattages",,"nattages",,"FR","01300","22","23","45.73033","5.76338","542","1"
"188","Contrevoz",,"contrevoz",,"FR","01300","22","23","45.80611","5.62774","479","1"
"189","Arbignieu",,"arbignieu",,"FR","01300","22","23","45.72864","5.65059","478","1"
"190","Magnieu",,"magnieu",,"FR","01300","22","23","45.77641","5.71931","407","1"
"191","Saint-Germain-les-Paroisses",,"saint-germain-les-paroisses",,"FR","01300","22","23","45.77221","5.61549","369","1"
"192","Parves",,"parves",,"FR","01300","22","23","45.74318","5.74169","353","1"
"193","Andert-et-Condon",,"andert-et-condon",,"FR","01300","22","23","45.78247","5.66447","334","1"
"194","Prémeyzel",,"premeyzel",,"FR","01300","22","23","45.68360","5.64789","251","1"
"195","Murs-et-Gélignieux",,"murs-et-gelignieux",,"FR","01300","22","23","45.64181","5.66163","245","1"
"196","Izieu",,"izieu",,"FR","01300","22","23","45.65201","5.64123","186","1"
"197","Marignieu",,"marignieu",,"FR","01300","22","23","45.79689","5.71958","168","1"
"198","Saint-Champ",,"saint-champ",,"FR","01300","22","23","45.77498","5.73376","141","1"
"199","Colomieu",,"colomieu",,"FR","01300","22","23","45.73303","5.62152","124","1"
"200","Ambléon",,"ambleon",,"FR","01300","22","23","45.74954","5.60138","120","1"
"201","Saint-Bois",,"saint-bois",,"FR","01300","22","23","45.70066","5.64049","119","1"
"202","Conzieu",,"conzieu",,"FR","01300","22","23","45.72626","5.60721","106","1"
"203","Polliat",,"polliat",,"FR","01310","22","23","46.24818","5.12659","2353","1"
"204","Buellas",,"buellas",,"FR","01310","22","23","46.20976","5.13251","1696","1"
"205","Confrançon",,"confrancon",,"FR","01310","22","23","46.26750","5.06622","1075","1"
"206","Saint-Rémy",,"saint-remy",,"FR","01310","22","23","46.18896","5.16779","1037","0"
"207","Montracol",,"montracol",,"FR","01310","22","23","46.19767","5.12294","880","1"
"208","Saint-Martin-le-Châtel",,"saint-martin-le-chatel",,"FR","01310","22","23","46.28160","5.11642","787","1"
"209","Curtafond",,"curtafond",,"FR","01310","22","23","46.27073","5.08973","676","1"
"210","Montcet",,"montcet",,"FR","01310","22","23","46.21252","5.11196","658","1"
"211","Chalamont",,"chalamont",,"FR","01320","22","23","45.99665","5.17176","2034","1"
"212","Châtillon-la-Palud",,"chatillon-la-palud",,"FR","01320","22","23","45.97315","5.25528","1466","1"
"213","Saint-Nizier-le-Désert",,"saint-nizier-le-desert",,"FR","01320","22","23","46.05579","5.14825","803","1"
"214","Villette-sur-Ain",,"villette-sur-ain",,"FR","01320","22","23","45.98796","5.26941","652","1"
"215","Châtenay",,"chatenay",,"FR","01320","22","23","46.03379","5.20080","173","0"
"216","Crans",,"crans",,"FR","01320","22","23","45.96201","5.21331","70","0"
"217","Villars-les-Dombes",,"villars-les-dombes",,"FR","01330","22","23","46.00132","5.02958","4390","1"
"218","Ambérieux-en-Dombes",,"amberieux-en-dombes",,"FR","01330","22","23","45.99747","4.90321","1469","1"
"219","Lapeyrouse",,"lapeyrouse",,"FR","01330","22","23","45.98247","4.97543","589","0"
"220","Le Plantay",,"le-plantay",,"FR","01330","22","23","46.02213","5.08915","528","1"
"221","Versailleux",,"versailleux",,"FR","01330","22","23","45.98065","5.10569","332","1"
"222","Bouligneux",,"bouligneux",,"FR","01330","22","23","46.02225","4.99127","312","1"
"223","Sainte-Olive",,"sainte-olive",,"FR","01330","22","23","46.01966","4.92873","306","1"
"224","Birieux",,"birieux",,"FR","01330","22","23","45.95325","5.03951","213","1"
"225","Saint-Sulpice",,"saint-sulpice",,"FR","01340","22","23","46.32038","5.04147","7624","0"
"226","Attignat",,"attignat",,"FR","01340","22","23","46.28952","5.16351","2544","1"
"227","Montrevel-en-Bresse",,"montrevel-en-bresse",,"FR","01340","22","23","46.33806","5.12730","2306","1"
"228","Foissiat",,"foissiat",,"FR","01340","22","23","46.36996","5.17505","1811","1"
"229","Cras-sur-Reyssouze",,"cras-sur-reyssouze",,"FR","01340","22","23","46.30818","5.16442","1125","1"
"230","Jayat",,"jayat",,"FR","01340","22","23","46.36915","5.11885","961","1"
"231","Malafretaz",,"malafretaz",,"FR","01340","22","23","46.32317","5.14639","867","1"
"232","Marsonnas",,"marsonnas",,"FR","01340","22","23","46.34134","5.07080","854","1"
"233","Saint-Didier-d'Aussiat",,"saint-didier-d-aussiat",,"FR","01340","22","23","46.30644","5.06079","805","1"
"234","Etrez",,"etrez",,"FR","01340","22","23","46.33462","5.18630","521","1"
"235","Béréziat",,"bereziat",,"FR","01340","22","23","46.36838","5.04526","366","1"
"236","Culoz",,"culoz",,"FR","01350","22","23","45.84992","5.78080","3012","1"
"237","Anglefort",,"anglefort",,"FR","01350","22","23","45.91414","5.80899","909","1"
"238","Ceyzérieu",,"ceyzerieu",,"FR","01350","22","23","45.83520","5.72678","904","1"
"239","Béon",,"beon",,"FR","01350","22","23","45.85374","5.75607","514","0"
"240","Cressin-Rochefort",,"cressin-rochefort",,"FR","01350","22","23","45.77786","5.76299","358","1"
"241","Pollieu",,"pollieu",,"FR","01350","22","23","45.80004","5.74215","153","1"
"242","Lavours",,"lavours",,"FR","01350","22","23","45.80933","5.77108","132","1"
"243","Vongnes",,"vongnes",,"FR","01350","22","23","45.81529","5.72572","66","1"
"244","Flaxieu",,"flaxieu",,"FR","01350","22","23","45.80898","5.73438","54","1"
"245","Béligneux",,"beligneux",,"FR","01360","22","23","45.86743","5.12843","2878","1"
"246","Loyettes",,"loyettes",,"FR","01360","22","23","45.77423","5.20577","2451","1"
"247","Balan",,"balan",,"FR","01360","22","23","45.83325","5.09781","1699","0"
"248","Bressolles",,"bressolles",,"FR","01360","22","23","45.86659","5.09578","1066","0"
"249","Treffort-Cuisiat",,"treffort-cuisiat",,"FR","01370","22","23","46.30072","5.38888","2060","1"
"250","Meillonnas",,"meillonnas",,"FR","01370","22","23","46.24547","5.35199","1351","1"
"251","Bény",,"beny",,"FR","01370","22","23","46.31777","5.28392","731","1"
"252","Saint-Etienne-du-Bois",,"saint-etienne-du-bois",,"FR","01370","22","23","46.28719","5.29348","507","0"
"253","Courmangoux",,"courmangoux",,"FR","01370","22","23","46.33057","5.36934","476","1"
"254","Cuisiat",,"cuisiat",,"FR","01370","22","23","46.30071","5.38888","412","1"
"255","Pressiat",,"pressiat",,"FR","01370","22","23","46.32372","5.38557","204","1"
"256","Bâgé-la-Ville",,"bage-la-ville",,"FR","01380","22","23","46.31649","4.94618","2694","1"
"257","Saint-Cyr-sur-Menthon",,"saint-cyr-sur-menthon",,"FR","01380","22","23","46.27468","4.97266","1547","1"
"258","Bâgé-le-Châtel",,"bage-le-chatel",,"FR","01380","22","23","46.30800","4.92860","874","1"
"259","Saint-André-de-Bâgé",,"saint-andre-de-bage",,"FR","01380","22","23","46.30333","4.92544","561","1"
"260","Saint-Genis-sur-Menthon",,"saint-genis-sur-menthon",,"FR","01380","22","23","46.28187","5.00834","396","1"
"261","Dommartin",,"dommartin",,"FR","01380","22","23","46.33712","4.98898","391","0"
"262","Boissey",,"boissey",,"FR","01380","22","23","46.38131","4.99615","169","0"
"263","Saint-André-de-Corcy",,"saint-andre-de-corcy",,"FR","01390","22","23","45.92935","4.95546","3046","1"
"264","Mionnay",,"mionnay",,"FR","01390","22","23","45.89635","4.93106","2185","1"
"265","Tramoyes",,"tramoyes",,"FR","01390","22","23","45.87774","4.96864","1629","1"
"266","Civrieux",,"civrieux",,"FR","01390","22","23","45.92067","4.88272","1423","1"
"267","Saint-Marcel",,"saint-marcel",,"FR","01390","22","23","45.94869","4.98612","703","0"
"268","Rancé",,"rance",,"FR","01390","22","23","45.96551","4.87000","656","0"
"269","Monthieux",,"monthieux",,"FR","01390","22","23","45.95654","4.94040","603","1"
"270","Saint-Jean-de-Thurigneux",,"saint-jean-de-thurigneux",,"FR","01390","22","23","45.95167","4.88255","590","1"
"271","Châtillon-sur-Chalaronne",,"chatillon-sur-chalaronne",,"FR","01400","22","23","46.11941","4.95672","5019","1"
"272","Neuville-les-Dames",,"neuville-les-dames",,"FR","01400","22","23","46.16208","5.00278","1522","1"
"273","L'Abergement-Clémenciat",,"l-abergement-clemenciat",,"FR","01400","22","23","46.15168","4.92007","1000","1"
"274","Condeissiat",,"condeissiat",,"FR","01400","22","23","46.15955","5.07904","759","1"
"275","Romans",,"romans",,"FR","01400","22","23","46.12058","5.02221","685","0"
"276","Chanoz-Châtenay",,"chanoz-chatenay",,"FR","01400","22","23","46.18454","5.02953","632","1"
"277","Sulignat",,"sulignat",,"FR","01400","22","23","46.17755","4.96424","580","1"
"278","Sandrans",,"sandrans",,"FR","01400","22","23","46.06359","4.98107","509","1"
"279","Dompierre-sur-Chalaronne",,"dompierre-sur-chalaronne",,"FR","01400","22","23","46.14286","4.90482","362","1"
"280","Saint-Georges-sur-Renon",,"saint-georges-sur-renon",,"FR","01400","22","23","46.10616","5.03119","193","1"
"281","Champfromier",,"champfromier",,"FR","01410","22","23","46.19458","5.81184","647","1"
"282","Chézery-Forens",,"chezery-forens",,"FR","01410","22","23","46.22241","5.86685","412","0"
"283","Mijoux",,"mijoux",,"FR","01410","22","23","46.36625","5.99627","386","0"
"284","Lélex",,"lelex",,"FR","01410","22","23","46.30492","5.94364","233","1"
"285","Seyssel",,"seyssel",,"FR","01420","22","23","45.95723","5.83101","2099","0"
"286","Corbonod",,"corbonod",,"FR","01420","22","23","45.96825","5.82144","1098","1"
"287","Chanay",,"chanay",,"FR","01420","22","23","46.00539","5.78595","624","1"
"288","Surjoux",,"surjoux",,"FR","01420","22","23","46.02350","5.80332","75","1"
"289","Lhôpital",,"lhopital",,"FR","01420","22","23","46.02194","5.77915","57","1"
"290","Saint-Martin-du-Frêne",,"saint-martin-du-frene",,"FR","01430","22","23","46.14025","5.55308","1098","1"
"291","Vieu-d'Izenave",,"vieu-d-izenave",,"FR","01430","22","23","46.08017","5.52985","667","1"
"292","Maillat",,"maillat",,"FR","01430","22","23","46.12993","5.53879","660","1"
"293","Lantenay",,"lantenay",,"FR","01430","22","23","46.05764","5.54143","465","0"
"294","Outriaz",,"outriaz",,"FR","01430","22","23","46.06686","5.54779","294","1"
"295","Ceignes",,"ceignes",,"FR","01430","22","23","46.11891","5.49925","287","1"
"296","Condamine",,"condamine",,"FR","01430","22","23","46.10954","5.55087","222","0"
"297","Chevillard",,"chevillard",,"FR","01430","22","23","46.11123","5.57915","182","1"
"298","Peyriat",,"peyriat",,"FR","01430","22","23","46.15463","5.51241","176","1"
"299","Izenave",,"izenave",,"FR","01430","22","23","46.03825","5.52508","154","1"
"300","Viriat",,"viriat",,"FR","01440","22","23","46.25395","5.21558","5833","1"
"301","Saint-Alban",,"saint-alban",,"FR","01450","22","23","46.10454","5.44796","5491","0"
"302","Poncin",,"poncin",,"FR","01450","22","23","46.08475","5.40693","1588","1"
"303","Cerdon",,"cerdon",,"FR","01450","22","23","46.08103","5.46563","1070","0"
"304","Challes-la-Montagne",,"challes-la-montagne",,"FR","01450","22","23","46.12513","5.46513","192","1"
"305","Leyssard",,"leyssard",,"FR","01450","22","23","46.15654","5.47529","169","1"
"306","Labalme",,"labalme",,"FR","01450","22","23","46.09122","5.48270","154","1"
"307","Mérignat",,"merignat",,"FR","01450","22","23","46.06953","5.43684","135","1"
"308","Serrières-sur-Ain",,"serrieres-sur-ain",,"FR","01450","22","23","46.15183","5.45205","114","1"
"309","Bolozon",,"bolozon",,"FR","01450","22","23","46.19259","5.47357","102","1"
"310","Nantua",,"nantua",,"FR","01460","22","23","46.15177","5.60715","3840","0"
"311","Montréal-la-Cluse",,"montreal-la-cluse",,"FR","01460","22","23","46.18714","5.57079","3652","1"
"312","Nurieux-Volognat",,"nurieux-volognat",,"FR","01460","22","23","46.17576","5.51401","1069","1"
"313","Port",,"port",,"FR","01460","22","23","46.16300","5.57313","903","0"
"314","Géovreissiat",,"geovreissiat",,"FR","01460","22","23","46.18941","5.55777","898","1"
"315","Brion",,"brion",,"FR","01460","22","23","46.17159","5.55413","619","0"
"316","Serrières-de-Briord",,"serrieres-de-briord",,"FR","01470","22","23","45.80704","5.45357","1091","1"
"317","Briord",,"briord",,"FR","01470","22","23","45.78227","5.45932","849","1"
"318","Montagnieu",,"montagnieu",,"FR","01470","22","23","45.79311","5.46850","827","0"
"319","Bénonces",,"benonces",,"FR","01470","22","23","45.82782","5.47834","269","1"
"320","Seillonnaz",,"seillonnaz",,"FR","01470","22","23","45.80674","5.48977","144","1"
"321","Jassans-Riottier",,"jassans-riottier",,"FR","01480","22","23","45.98181","4.75832","5978","1"
"322","Savigneux",,"savigneux",,"FR","01480","22","23","46.00078","4.84703","3096","0"
"323","Frans",,"frans",,"FR","01480","22","23","45.99154","4.77352","1965","1"
"324","Fareins",,"fareins",,"FR","01480","22","23","46.01845","4.76141","1949","1"
"325","Ars-sur-Formans",,"ars-sur-formans",,"FR","01480","22","23","45.99225","4.82380","1263","1"
"326","Chaleins",,"chaleins",,"FR","01480","22","23","46.03017","4.80433","1205","1"
"327","Messimy-sur-Saône",,"messimy-sur-saone",,"FR","01480","22","23","46.04891","4.76460","1133","1"
"328","Beauregard",,"beauregard",,"FR","01480","22","23","46.00104","4.75113","245","0"
"329","Villeneuve",,"villeneuve",,"FR","01480","22","23","46.02139","4.83728","152","0"
"330","Ambérieu-en-Bugey",,"amberieu-en-bugey",,"FR","01500","22","23","45.95778","5.35883","13144","1"
"331","Ambronay",,"ambronay",,"FR","01500","22","23","46.00646","5.36025","2351","1"
"332","Saint-Denis-en-Bugey",,"saint-denis-en-bugey",,"FR","01500","22","23","45.95162","5.32809","2105","1"
"333","Château-Gaillard",,"chateau-gaillard",,"FR","01500","22","23","45.97305","5.30242","1704","1"
"334","Douvres",,"douvres",,"FR","01500","22","23","45.98844","5.37481","948","1"
"335","Bettant",,"bettant",,"FR","01500","22","23","45.94278","5.36404","717","1"
"336","Saint-Maurice-de-Rémens",,"saint-maurice-de-remens",,"FR","01500","22","23","45.95831","5.27737","673","1"
"337","Ambutrix",,"ambutrix",,"FR","01500","22","23","45.93961","5.33847","656","1"
"338","Artemare",,"artemare",,"FR","01510","22","23","45.87188","5.69109","1102","1"
"339","Virieu-le-Grand",,"virieu-le-grand",,"FR","01510","22","23","45.84943","5.65066","1061","1"
"340","Talissieu",,"talissieu",,"FR","01510","22","23","45.86596","5.72429","462","1"
"341","Saint-Martin-de-Bavel",,"saint-martin-de-bavel",,"FR","01510","22","23","45.84923","5.67711","435","1"
"342","Chavornay",,"chavornay",,"FR","01510","22","23","45.88287","5.71690","182","0"
"343","Rossillon",,"rossillon",,"FR","01510","22","23","45.83373","5.59215","150","1"
"344","Cheignieu-la-Balme",,"cheignieu-la-balme",,"FR","01510","22","23","45.82610","5.60880","144","1"
"345","Ordonnaz",,"ordonnaz",,"FR","01510","22","23","45.83282","5.53692","133","1"
"346","Pugieu",,"pugieu",,"FR","01510","22","23","45.82055","5.64852","130","1"
"347","La Burbanche",,"la-burbanche",,"FR","01510","22","23","45.84595","5.56089","64","1"
"348","Armix",,"armix",,"FR","01510","22","23","45.84926","5.58507","26","1"
"349","Vonnas",,"vonnas",,"FR","01540","22","23","46.21927","4.99231","2684","1"
"350","Perrex",,"perrex",,"FR","01540","22","23","46.24528","4.97963","838","1"
"351","Saint-Julien-sur-Veyle",,"saint-julien-sur-veyle",,"FR","01540","22","23","46.20287","4.95416","640","1"
"352","Collonges",,"collonges",,"FR","01550","22","23","46.13930","5.90384","1254","0"
"353","Farges",,"farges",,"FR","01550","22","23","46.16886","5.90660","806","1"
"354","Pougny",,"pougny",,"FR","01550","22","23","46.13904","5.95077","463","0"
"355","Saint-Trivier-de-Courtes",,"saint-trivier-de-courtes",,"FR","01560","22","23","46.45942","5.08252","1000","1"
"356","Saint-Nizier-le-Bouchoux",,"saint-nizier-le-bouchoux",,"FR","01560","22","23","46.46013","5.15119","752","1"
"357","Saint-Jean-sur-Reyssouze",,"saint-jean-sur-reyssouze",,"FR","01560","22","23","46.39666","5.06231","701","1"
"358","Lescheroux",,"lescheroux",,"FR","01560","22","23","46.40729","5.14401","674","1"
"359","Saint-Julien-sur-Reyssouze",,"saint-julien-sur-reyssouze",,"FR","01560","22","23","46.40177","5.10967","565","1"
"360","Cormoz",,"cormoz",,"FR","01560","22","23","46.44874","5.23280","510","1"
"361","Curciat-Dongalon",,"curciat-dongalon",,"FR","01560","22","23","46.47453","5.15712","427","1"
"362","Mantenay-Montlin",,"mantenay-montlin",,"FR","01560","22","23","46.42841","5.12064","281","1"
"363","Courtes",,"courtes",,"FR","01560","22","23","46.45933","5.10093","245","1"
"364","Vescours",,"vescours",,"FR","01560","22","23","46.47264","5.02563","203","1"
"365","Vernoux",,"vernoux",,"FR","01560","22","23","46.48005","5.10977","197","1"
"366","Servignat",,"servignat",,"FR","01560","22","23","46.43369","5.06993","154","1"
"367","Feillens",,"feillens",,"FR","01570","22","23","46.33625","4.88749","3222","1"
"368","Manziat",,"manziat",,"FR","01570","22","23","46.35910","4.90699","1883","1"
"369","Vésines",,"vesines",,"FR","01570","22","23","46.35996","4.86736","95","1"
"370","Asnières-sur-Saône",,"asnieres-sur-saone",,"FR","01570","22","23","46.38318","4.88281","93","1"
"371","Izernore",,"izernore",,"FR","01580","22","23","46.21978","5.55483","2189","1"
"372","Matafelon-Granges",,"matafelon-granges",,"FR","01580","22","23","46.23850","5.49883","650","1"
"373","Samognat",,"samognat",,"FR","01580","22","23","46.25775","5.57663","646","1"
"374","Sonthonnax-la-Montagne",,"sonthonnax-la-montagne",,"FR","01580","22","23","46.23374","5.52446","328","1"
"375","Dortan",,"dortan",,"FR","01590","22","23","46.31909","5.66023","2180","1"
"376","Lavancia-Epercy",,"lavancia-epercy",,"FR","01590","22","23","46.33363","5.67728","670","1"
"377","Chancia",,"chancia",,"FR","01590","22","23","46.34658","5.64215","224","1"
"378","Trévoux",,"trevoux",,"FR","01600","22","23","45.94043","4.77654","7039","1"
"379","Reyrieux",,"reyrieux",,"FR","01600","22","23","45.93633","4.81162","4044","1"
"380","Massieux",,"massieux",,"FR","01600","22","23","45.90825","4.83208","2422","1"
"381","Misérieux",,"miserieux",,"FR","01600","22","23","45.97367","4.81103","1915","1"
"382","Saint-Didier-de-Formans",,"saint-didier-de-formans",,"FR","01600","22","23","45.95574","4.78056","1781","1"
"383","Sainte-Euphémie",,"sainte-euphemie",,"FR","01600","22","23","45.97238","4.79629","1366","1"
"384","Parcieux",,"parcieux",,"FR","01600","22","23","45.91556","4.82438","1033","1"
"385","Toussieux",,"toussieux",,"FR","01600","22","23","45.96028","4.82385","746","1"
"386","Saint-Bernard",,"saint-bernard",,"FR","01600","22","23","45.94479","4.73246","466","0"
"387","Saint-Genis-Pouilly",,"saint-genis-pouilly",,"FR","01630","22","23","46.24357","6.02108","8047","1"
"388","Péron",,"peron",,"FR","01630","22","23","46.18894","5.92584","1874","1"
"389","Saint-Jean-de-Gonville",,"saint-jean-de-gonville",,"FR","01630","22","23","46.21190","5.95087","1429","1"
"390","Challex",,"challex",,"FR","01630","22","23","46.18986","5.98195","1079","1"
"391","Sergy",,"sergy",,"FR","01630","22","23","46.25256","5.99919","157","0"
"392","Jujurieux",,"jujurieux",,"FR","01640","22","23","46.04010","5.40894","1985","1"
"393","L'Abergement-de-Varey",,"l-abergement-de-varey",,"FR","01640","22","23","46.00538","5.42548","1000","1"
"394","Saint-Jean-le-Vieux",,"saint-jean-le-vieux",,"FR","01640","22","23","46.02890","5.38903","883","0"
"395","Boyeux-Saint-Jérôme",,"boyeux-saint-jerome",,"FR","01640","22","23","46.02973","5.45687","317","1"
"396","Mézériat",,"mezeriat",,"FR","01660","22","23","46.23350","5.04742","2043","1"
"397","Chaveyriat",,"chaveyriat",,"FR","01660","22","23","46.19879","5.06007","908","1"
"398","Vandeins",,"vandeins",,"FR","01660","22","23","46.21740","5.07942","590","1"
"399","Lhuis",,"lhuis",,"FR","01680","22","23","45.74635","5.53458","829","1"
"400","Groslée",,"groslee",,"FR","01680","22","23","45.71291","5.56662","360","1"
"401","Lompnas",,"lompnas",,"FR","01680","22","23","45.80282","5.51994","176","1"
"402","Marchamp",,"marchamp",,"FR","01680","22","23","45.78696","5.54197","115","1"
"403","Innimond",,"innimond",,"FR","01680","22","23","45.78406","5.57214","114","1"
"404","Beynost",,"beynost",,"FR","01700","22","23","45.83974","5.00474","4254","1"
"405","Saint-Maurice-de-Beynost",,"saint-maurice-de-beynost",,"FR","01700","22","23","45.83155","4.97884","3938","1"
"406","Neyron",,"neyron",,"FR","01700","22","23","45.81410","4.93135","2318","1"
"407","Miribel",,"miribel",,"FR","01700","22","23","45.82383","4.95205","244","0"
"408","Thoiry",,"thoiry",,"FR","01710","22","23","46.23691","5.98081","1140","0"
"409","Replonges",,"replonges",,"FR","01750","22","23","46.30999","4.88631","3183","1"
"410","Saint-Laurent-sur-Saône",,"saint-laurent-sur-saone",,"FR","01750","22","23","46.30602","4.84182","1739","1"
"411","Crottet",,"crottet",,"FR","01750","22","23","46.27802","4.89327","1691","0"
"412","Meximieux",,"meximieux",,"FR","01800","22","23","45.90242","5.19097","7527","1"
"413","Villieu-Loyes-Mollon",,"villieu-loyes-mollon",,"FR","01800","22","23","45.92200","5.22170","2816","1"
"414","Saint-Maurice-de-Gourdans",,"saint-maurice-de-gourdans",,"FR","01800","22","23","45.82124","5.19497","2351","1"
"415","Saint-Jean-de-Niost",,"saint-jean-de-niost",,"FR","01800","22","23","45.84479","5.21724","1410","1"
"416","Pérouges",,"perouges",,"FR","01800","22","23","45.90353","5.17812","1217","1"
"417","Bourg-Saint-Christophe",,"bourg-saint-christophe",,"FR","01800","22","23","45.89092","5.16118","1052","1"
"418","Rignieux-le-Franc",,"rignieux-le-franc",,"FR","01800","22","23","45.93980","5.18840","953","1"
"419","Charnoz-sur-Ain",,"charnoz-sur-ain",,"FR","01800","22","23","45.87127","5.22322","903","1"
"420","Faramans",,"faramans",,"FR","01800","22","23","45.90255","5.12507","858","0"
"421","Saint-Eloi",,"saint-eloi",,"FR","01800","22","23","45.93362","5.15233","256","0"
"422","Joyeux",,"joyeux",,"FR","01800","22","23","45.96191","5.09913","229","1"
"423","Le Montellier",,"le-montellier",,"FR","01800","22","23","45.92999","5.07267","222","1"
"424","Marboz",,"marboz",,"FR","01851","22","23","46.34291","5.25887","2243","1"
"425","Péronnas",,"peronnas",,"FR","01960","22","23","46.17963","5.20323","6470","1"
"426","Saint-André-sur-Vieux-Jonc",,"saint-andre-sur-vieux-jonc",,"FR","01960","22","23","46.15653","5.14579","1000","1"
"427","Servas",,"servas",,"FR","01960","22","23","46.13267","5.16496","189","0"
"428","Saint-Trivier-sur-Moignans",,"saint-trivier-sur-moignans",,"FR","01990","22","23","46.07194","4.89810","1847","1"
"429","Chaneins",,"chaneins",,"FR","01990","22","23","46.09720","4.85124","850","1"
"430","Baneins",,"baneins",,"FR","01990","22","23","46.11107","4.90365","606","1"
"431","Relevant",,"relevant",,"FR","01990","22","23","46.08916","4.94904","420","1"
"432","Laon",,"laon",,"FR","02000","19","24","49.56475","3.62425","27557","1"
"433","Aulnois-sous-Laon",,"aulnois-sous-laon",,"FR","02000","19","24","49.61485","3.60132","1339","1"
"434","Mons-en-Laonnois",,"mons-en-laonnois",,"FR","02000","19","24","49.53827","3.55334","1090","1"
"435","Chambry",,"chambry",,"FR","02000","19","24","49.59096","3.65456","872","0"
"436","Etouvelles",,"etouvelles",,"FR","02000","19","24","49.52110","3.58040","778","1"
"437","Chavignon",,"chavignon",,"FR","02000","19","24","49.47951","3.52066","756","1"
"438","Chéry-lès-Pouilly",,"chery-les-pouilly",,"FR","02000","19","24","49.65880","3.60623","673","1"
"439","Chivy-lès-Etouvelles",,"chivy-les-etouvelles",,"FR","02000","19","24","49.52759","3.58448","610","1"
"440","Urcel",,"urcel",,"FR","02000","19","24","49.49083","3.55761","579","1"
"441","Barenton-Bugny",,"barenton-bugny",,"FR","02000","19","24","49.63353","3.65115","579","1"
"442","Clacy-et-Thierret",,"clacy-et-thierret",,"FR","02000","19","24","49.54905","3.57087","366","1"
"443","Molinchart",,"molinchart",,"FR","02000","19","24","49.56165","3.53922","296","1"
"444","Verneuil-sur-Serre",,"verneuil-sur-serre",,"FR","02000","19","24","49.65036","3.67397","270","1"
"445","Merlieux-et-Fouquerolles",,"merlieux-et-fouquerolles",,"FR","02000","19","24","49.51810","3.50509","269","1"
"446","Filain",,"filain",,"FR","02000","19","24","49.45859","3.55715","236","0"
"447","Pargny-Filain",,"pargny-filain",,"FR","02000","19","24","49.46339","3.54404","235","1"
"448","Vaucelles-et-Beffecourt",,"vaucelles-et-beffecourt",,"FR","02000","19","24","49.52546","3.55176","224","1"
"449","Braye-en-Laonnois",,"braye-en-laonnois",,"FR","02000","19","24","49.44115","3.60705","215","1"
"450","Chevregny",,"chevregny",,"FR","02000","19","24","49.47254","3.59096","200","1"
"451","Royaucourt-et-Chailvet",,"royaucourt-et-chailvet",,"FR","02000","19","24","49.52323","3.53942","191","1"
"452","Chaillevois",,"chaillevois",,"FR","02000","19","24","49.51368","3.52508","187","1"
"453","Laniscourt",,"laniscourt",,"FR","02000","19","24","49.54871","3.54229","186","1"
"454","Barenton-Cel",,"barenton-cel",,"FR","02000","19","24","49.64382","3.65521","150","1"
"455","Monampteuil",,"monampteuil",,"FR","02000","19","24","49.47577","3.57321","137","1"
"456","Bourguignon-sous-Montbavin",,"bourguignon-sous-montbavin",,"FR","02000","19","24","49.52870","3.54062","128","1"
"457","Montbavin",,"montbavin",,"FR","02000","19","24","49.53036","3.51069","40","1"
"458","Saint-Quentin",,"saint-quentin",,"FR","02100","19","24","49.84818","3.28822","58486","1"
"459","Rouvroy",,"rouvroy",,"FR","02100","19","24","49.85495","3.31829","8973","0"
"460","Harly",,"harly",,"FR","02100","19","24","49.84201","3.32041","1802","1"
"461","Omissy",,"omissy",,"FR","02100","19","24","49.87756","3.31285","971","1"
"462","Gricourt",,"gricourt",,"FR","02100","19","24","49.88832","3.24555","872","1"
"463","Neuville-Saint-Amand",,"neuville-saint-amand",,"FR","02100","19","24","49.82539","3.33365","868","1"
"464","Lesdins",,"lesdins",,"FR","02100","19","24","49.89646","3.32723","813","1"
"465","Essigny-le-Petit",,"essigny-le-petit",,"FR","02100","19","24","49.89928","3.36643","359","1"
"466","Fayet",,"fayet",,"FR","02100","19","24","49.86817","3.25063","290","0"
"467","Morcourt",,"morcourt",,"FR","02100","19","24","49.87550","3.32257","276","0"
"468","Remaucourt",,"remaucourt",,"FR","02100","19","24","49.89589","3.33858","162","0"
"469","Bohain-en-Vermandois",,"bohain-en-vermandois",,"FR","02110","19","24","49.98703","3.45395","6442","1"
"470","Fontaine-Notre-Dame",,"fontaine-notre-dame",,"FR","02110","19","24","49.88368","3.42923","1712","0"
"471","Etaves-et-Bocquiaux",,"etaves-et-bocquiaux",,"FR","02110","19","24","49.93566","3.45107","1572","1"
"472","Beaurevoir",,"beaurevoir",,"FR","02110","19","24","49.99778","3.30792","1550","1"
"473","Seboncourt",,"seboncourt",,"FR","02110","19","24","49.95392","3.47687","1084","1"
"474","Vaux-Andigny",,"vaux-andigny",,"FR","02110","19","24","50.02310","3.51340","990","1"
"475","Montbrehain",,"montbrehain",,"FR","02110","19","24","49.96619","3.34764","850","1"
"476","Prémont",,"premont",,"FR","02110","19","24","50.01317","3.39344","728","1"
"477","Brancourt-le-Grand",,"brancourt-le-grand",,"FR","02110","19","24","49.97598","3.38143","635","1"
"478","Fonsommes",,"fonsommes",,"FR","02110","19","24","49.90278","3.39814","522","1"
"479","Serain",,"serain",,"FR","02110","19","24","50.02706","3.36725","398","1"
"480","Grougis",,"grougis",,"FR","02110","19","24","49.94240","3.53208","368","1"
"481","Aisonville-et-Bernoville",,"aisonville-et-bernoville",,"FR","02110","19","24","49.93372","3.52302","301","1"
"482","Montigny-en-Arrouaise",,"montigny-en-arrouaise",,"FR","02110","19","24","49.90548","3.47708","289","1"
"483","Fieulaine",,"fieulaine",,"FR","02110","19","24","49.89926","3.44980","275","1"
"484","Croix-Fonsommes",,"croix-fonsommes",,"FR","02110","19","24","49.91905","3.40189","233","1"
"485","Ramicourt",,"ramicourt",,"FR","02110","19","24","49.95817","3.32960","175","1"
"486","La Vallée-Mulâtre",,"la-vallee-mulatre",,"FR","02110","19","24","50.02044","3.55865","144","1"
"487","Molain",,"molain",,"FR","02110","19","24","50.03186","3.53561","119","0"
"488","Saint-Martin-Rivière",,"saint-martin-riviere",,"FR","02110","19","24","50.04367","3.53951","118","1"
"489","Fontaine-Uterte",,"fontaine-uterte",,"FR","02110","19","24","49.92169","3.37151","113","1"
"490","Becquigny",,"becquigny",,"FR","02110","19","24","50.01601","3.46974","107","0"
"491","Ribeauville",,"ribeauville",,"FR","02110","19","24","50.04308","3.58518","82","0"
"492","Guise",,"guise",,"FR","02120","19","24","49.89968","3.62778","5682","1"
"493","Sains-Richaumont",,"sains-richaumont",,"FR","02120","19","24","49.82562","3.71514","960","1"
"494","Lesquielles-Saint-Germain",,"lesquielles-saint-germain",,"FR","02120","19","24","49.93199","3.61956","885","1"
"495","Bernot",,"bernot",,"FR","02120","19","24","49.86831","3.49818","452","1"
"496","Flavigny-le-Grand-et-Beaurain",,"flavigny-le-grand-et-beaurain",,"FR","02120","19","24","49.88238","3.67687","436","1"
"497","Marly-Gomont",,"marly-gomont",,"FR","02120","19","24","49.89866","3.77460","431","1"
"498","Macquigny",,"macquigny",,"FR","02120","19","24","49.88433","3.55158","398","1"
"499","Proisy",,"proisy",,"FR","02120","19","24","49.89796","3.74031","367","1"
"500","Tupigny",,"tupigny",,"FR","02120","19","24","49.95703","3.60729","364","1"
"501","Le Hérie-la-Viéville",,"le-herie-la-vieville",,"FR","02120","19","24","49.82269","3.64547","346","1"
"502","Puisieux-et-Clanlieu",,"puisieux-et-clanlieu",,"FR","02120","19","24","49.85512","3.67640","303","1"
"503","Landifay-et-Bertaignemont",,"landifay-et-bertaignemont",,"FR","02120","19","24","49.81845","3.60524","299","1"
"504","Hauteville",,"hauteville",,"FR","02120","19","24","49.87826","3.52254","297","0"
"505","Audigny",,"audigny",,"FR","02120","19","24","49.86921","3.64664","243","1"
"506","Wiège-Faty",,"wiege-faty",,"FR","02120","19","24","49.88180","3.71763","227","1"
"507","Malzy",,"malzy",,"FR","02120","19","24","49.90755","3.72374","204","1"
"508","Villers-lès-Guise",,"villers-les-guise",,"FR","02120","19","24","49.92225","3.67541","178","1"
"509","Chigny",,"chigny",,"FR","02120","19","24","49.91710","3.77076","178","0"
"510","Noyales",,"noyales",,"FR","02120","19","24","49.89849","3.55492","166","1"
"511","Romery",,"romery",,"FR","02120","19","24","49.89734","3.72475","157","0"
"512","Proix",,"proix",,"FR","02120","19","24","49.90031","3.56713","143","1"
"513","Monceau-sur-Oise",,"monceau-sur-oise",,"FR","02120","19","24","49.90209","3.69670","134","1"
"514","Grand-Verly",,"grand-verly",,"FR","02120","19","24","49.93804","3.58318","134","1"
"515","Vadencourt",,"vadencourt",,"FR","02120","19","24","49.92875","3.57672","104","0"
"516","Colonfay",,"colonfay",,"FR","02120","19","24","49.86049","3.71419","77","1"
"517","Crupilly",,"crupilly",,"FR","02120","19","24","49.92544","3.75491","58","1"
"518","Fère-en-Tardenois",,"fere-en-tardenois",,"FR","02130","19","24","49.20003","3.51384","3373","1"
"519","Beuvardes",,"beuvardes",,"FR","02130","19","24","49.13910","3.48788","710","1"
"520","Villers-sur-Fère",,"villers-sur-fere",,"FR","02130","19","24","49.18247","3.53367","458","1"
"521","Arcy-Sainte-Restitue",,"arcy-sainte-restitue",,"FR","02130","19","24","49.25266","3.46348","434","1"
"522","Coulonges-Cohan",,"coulonges-cohan",,"FR","02130","19","24","49.21548","3.64292","432","1"
"523","Seringes-et-Nesles",,"seringes-et-nesles",,"FR","02130","19","24","49.20252","3.57390","287","1"
"524","Villeneuve-sur-Fère",,"villeneuve-sur-fere",,"FR","02130","19","24","49.17750","3.47465","280","1"
"525","Saponay",,"saponay",,"FR","02130","19","24","49.21471","3.48061","264","1"
"526","Fresnes-en-Tardenois",,"fresnes-en-tardenois",,"FR","02130","19","24","49.14611","3.55494","246","1"
"527","Mareuil-en-Dôle",,"mareuil-en-dole",,"FR","02130","19","24","49.24128","3.55583","222","1"
"528","Bruyères-sur-Fère",,"bruyeres-sur-fere",,"FR","02130","19","24","49.18915","3.44198","216","1"
"529","Sergy",,"sergy",,"FR","02130","19","24","49.18401","3.57046","157","0"
"530","Dravegny",,"dravegny",,"FR","02130","19","24","49.23056","3.63754","154","1"
"531","Vézilly",,"vezilly",,"FR","02130","19","24","49.18231","3.69120","154","1"
"532","Cramaille",,"cramaille",,"FR","02130","19","24","49.22962","3.45572","120","1"
"533","Courmont",,"courmont",,"FR","02130","19","24","49.14931","3.57645","107","0"
"534","Goussancourt",,"goussancourt",,"FR","02130","19","24","49.16541","3.67039","94","1"
"535","Villers-Agron-Aiguizy",,"villers-agron-aiguizy",,"FR","02130","19","24","49.16188","3.69816","94","1"
"536","Ronchères",,"roncheres",,"FR","02130","19","24","49.14313","3.60163","91","0"
"537","Loupeigne",,"loupeigne",,"FR","02130","19","24","49.25052","3.53559","82","1"
"538","Cierges",,"cierges",,"FR","02130","19","24","49.16876","3.60089","72","1"
"539","Vervins",,"vervins",,"FR","02140","19","24","49.83370","3.90742","2847","1"
"540","Fontaine-lès-Vervins",,"fontaine-les-vervins",,"FR","02140","19","24","49.85277","3.89643","1141","1"
"541","Lugny",,"lugny",,"FR","02140","19","24","49.78134","3.80887","987","0"
"542","Plomion",,"plomion",,"FR","02140","19","24","49.80755","4.01891","540","1"
"543","La Bouteille",,"la-bouteille",,"FR","02140","19","24","49.85939","3.97506","531","1"
"544","Landouzy-la-Ville",,"landouzy-la-ville",,"FR","02140","19","24","49.86145","4.04685","528","1"
"545","Lemé",,"leme",,"FR","02140","19","24","49.83685","3.76369","463","0"
"546","Voulpaix",,"voulpaix",,"FR","02140","19","24","49.83937","3.82945","400","1"
"547","Gercy",,"gercy",,"FR","02140","19","24","49.81577","3.86378","308","1"
"548","Saint-Gobert",,"saint-gobert",,"FR","02140","19","24","49.80073","3.81467","307","1"
"549","La Vallée-au-Blé",,"la-vallee-au-ble",,"FR","02140","19","24","49.85788","3.78973","304","1"
"550","Thenailles",,"thenailles",,"FR","02140","19","24","49.82085","3.94030","268","1"
"551","Harcigny",,"harcigny",,"FR","02140","19","24","49.79635","3.98185","263","1"
"552","Laigny",,"laigny",,"FR","02140","19","24","49.85766","3.85437","238","1"
"553","Rougeries",,"rougeries",,"FR","02140","19","24","49.80296","3.78729","237","1"
"554","Hary",,"hary",,"FR","02140","19","24","49.78997","3.93188","229","1"
"555","Jeantes",,"jeantes",,"FR","02140","19","24","49.80405","4.05541","220","1"
"556","Franqueville",,"franqueville",,"FR","02140","19","24","49.80979","3.81017","172","0"
"557","Le Sourd",,"le-sourd",,"FR","02140","19","24","49.86194","3.74753","168","1"
"558","Braye-en-Thiérache",,"braye-en-thierache",,"FR","02140","19","24","49.77950","3.95676","157","1"
"559","Landouzy-la-Cour",,"landouzy-la-cour",,"FR","02140","19","24","49.84700","3.98227","154","1"
"560","Burelles",,"burelles",,"FR","02140","19","24","49.78190","3.89613","153","1"
"561","Haution",,"haution",,"FR","02140","19","24","49.86627","3.83945","151","1"
"562","Dagny-Lambercy",,"dagny-lambercy",,"FR","02140","19","24","49.77925","4.04298","139","1"
"563","Nampcelles-la-Cour",,"nampcelles-la-cour",,"FR","02140","19","24","49.77806","4.00393","136","1"
"564","Prisces",,"prisces",,"FR","02140","19","24","49.77970","3.86214","113","1"
"565","Marfontaine",,"marfontaine",,"FR","02140","19","24","49.80397","3.77052","98","1"
"566","Rogny",,"rogny",,"FR","02140","19","24","49.76911","3.80756","98","1"
"567","Gronard",,"gronard",,"FR","02140","19","24","49.79252","3.88288","78","1"
"568","Voharies",,"voharies",,"FR","02140","19","24","49.78669","3.79562","74","1"
"569","Houry",,"houry",,"FR","02140","19","24","49.78316","3.84964","62","1"
"570","Saint-Pierre-lès-Franqueville",,"saint-pierre-les-franqueville",,"FR","02140","19","24","49.81966","3.81414","58","1"
"571","Bancigny",,"bancigny",,"FR","02140","19","24","49.80069","4.03291","24","1"
"572","Sissonne",,"sissonne",,"FR","02150","19","24","49.57208","3.89126","2346","1"
"573","La Selve",,"la-selve",,"FR","02150","19","24","49.57053","3.99682","692","0"
"574","Lappion",,"lappion",,"FR","02150","19","24","49.60906","3.96606","296","1"
"575","Nizy-le-Comte",,"nizy-le-comte",,"FR","02150","19","24","49.56792","4.05484","267","1"
"576","Bourg-et-Comin",,"bourg-et-comin",,"FR","02160","19","24","49.39595","3.65587","744","1"
"577","Œuilly",,"Œuilly",,"FR","02160","19","24","49.39042","3.68859","639","0"
"578","Moulins",,"moulins",,"FR","02160","19","24","49.42099","3.68522","620","0"
"579","Pontavert",,"pontavert",,"FR","02160","19","24","49.40763","3.82114","603","1"
"580","Longueval-Barbonval",,"longueval-barbonval",,"FR","02160","19","24","49.35876","3.65354","459","1"
"581","Roucy",,"roucy",,"FR","02160","19","24","49.37082","3.81461","399","1"
"582","Maizy",,"maizy",,"FR","02160","19","24","49.37541","3.73531","395","1"
"583","Soupir",,"soupir",,"FR","02160","19","24","49.40649","3.59504","305","1"
"584","Concevreux",,"concevreux",,"FR","02160","19","24","49.37678","3.78895","252","1"
"585","Guyencourt",,"guyencourt",,"FR","02160","19","24","49.35690","3.83708","246","1"
"586","Glennes",,"glennes",,"FR","02160","19","24","49.35445","3.71525","208","1"
"587","Beaurieux",,"beaurieux",,"FR","02160","19","24","49.39335","3.73788","177","0"
"588","Viel-Arcy",,"viel-arcy",,"FR","02160","19","24","49.38043","3.62550","172","1"
"589","Moussy-Verneuil",,"moussy-verneuil",,"FR","02160","19","24","49.41695","3.63834","132","1"
"590","Pont-Arcy",,"pont-arcy",,"FR","02160","19","24","49.39474","3.63022","128","1"
"591","La Ville-aux-Bois-lès-Pontavert",,"la-ville-aux-bois-les-pontavert",,"FR","02160","19","24","49.42729","3.85000","124","1"
"592","Villers-en-Prayères",,"villers-en-prayeres",,"FR","02160","19","24","49.37776","3.67499","119","1"
"593","Vendresse-Beaulne",,"vendresse-beaulne",,"FR","02160","19","24","49.42983","3.64429","116","1"
"594","Bouffignereux",,"bouffignereux",,"FR","02160","19","24","49.37358","3.84386","113","1"
"595","Vauxcéré",,"vauxcere",,"FR","02160","19","24","49.34071","3.63716","109","1"
"596","Craonnelle",,"craonnelle",,"FR","02160","19","24","49.43147","3.76836","103","1"
"597","Blanzy-lès-Fismes",,"blanzy-les-fismes",,"FR","02160","19","24","49.33773","3.67317","97","1"
"598","Chaudardes",,"chaudardes",,"FR","02160","19","24","49.39126","3.79250","87","1"
"599","Perles",,"perles",,"FR","02160","19","24","49.32565","3.65502","80","0"
"600","Merval",,"merval",,"FR","02160","19","24","49.35279","3.69640","79","1"
"601","Cuiry-lès-Chaudardes",,"cuiry-les-chaudardes",,"FR","02160","19","24","49.38616","3.77065","77","1"
"602","Jumigny",,"jumigny",,"FR","02160","19","24","49.41171","3.71877","73","1"
"603","Paissy",,"paissy",,"FR","02160","19","24","49.42484","3.70046","70","1"
"604","Gernicourt",,"gernicourt",,"FR","02160","19","24","49.39838","3.87115","70","1"
"605","Cuissy-et-Geny",,"cuissy-et-geny",,"FR","02160","19","24","49.40878","3.70280","68","1"
"606","Craonne",,"craonne",,"FR","02160","19","24","49.43882","3.78570","65","1"
"607","Vassogne",,"vassogne",,"FR","02160","19","24","49.42158","3.72741","62","1"
"608","Meurival",,"meurival",,"FR","02160","19","24","49.35834","3.76139","61","1"
"609","Révillon",,"revillon",,"FR","02160","19","24","49.36547","3.70014","59","1"
"610","Pargnan",,"pargnan",,"FR","02160","19","24","49.40034","3.69386","58","1"
"611","Oulches-la-Vallée-Foulon",,"oulches-la-vallee-foulon",,"FR","02160","19","24","49.42860","3.74577","51","1"
"612","Muscourt",,"muscourt",,"FR","02160","19","24","49.36429","3.74659","41","1"
"613","Serval",,"serval",,"FR","02160","19","24","49.35385","3.68670","38","1"
"614","Le Nouvion-en-Thiérache",,"le-nouvion-en-thierache",,"FR","02170","19","24","50.01678","3.78402","2907","1"
"615","Esquéhéries",,"esqueheries",,"FR","02170","19","24","49.98364","3.74763","876","1"
"616","Barzy-en-Thiérache",,"barzy-en-thierache",,"FR","02170","19","24","50.04289","3.74646","303","1"
"617","Leschelles",,"leschelles",,"FR","02170","19","24","49.95843","3.77009","276","1"
"618","Fontenelle",,"fontenelle",,"FR","02170","19","24","50.02949","3.86380","114","0"
"619","Guignicourt",,"guignicourt",,"FR","02190","19","24","49.43438","3.96676","2188","1"
"620","Evergnicourt",,"evergnicourt",,"FR","02190","19","24","49.44285","4.04030","2170","1"
"621","Menneville",,"menneville",,"FR","02190","19","24","49.41924","4.00756","681","0"
"622","Berry-au-Bac",,"berry-au-bac",,"FR","02190","19","24","49.40336","3.90023","524","1"
"623","Neufchâtel-sur-Aisne",,"neufchatel-sur-aisne",,"FR","02190","19","24","49.43170","4.03421","460","1"
"624","Juvincourt-et-Damary",,"juvincourt-et-damary",,"FR","02190","19","24","49.46631","3.88291","449","1"
"625","Orainville",,"orainville",,"FR","02190","19","24","49.38083","4.02204","447","1"
"626","La Malmaison",,"la-malmaison",,"FR","02190","19","24","49.51572","3.97988","418","1"
"627","Amifontaine",,"amifontaine",,"FR","02190","19","24","49.48314","3.91606","406","1"
"628","Prouvais",,"prouvais",,"FR","02190","19","24","49.46397","3.97593","386","1"
"629","Aguilcourt",,"aguilcourt",,"FR","02190","19","24","49.40640","3.96568","357","1"
"630","Condé-sur-Suippe",,"conde-sur-suippe",,"FR","02190","19","24","49.42119","3.94834","253","1"
"631","Variscourt",,"variscourt",,"FR","02190","19","24","49.41694","3.98630","198","1"
"632","Lor",,"lor",,"FR","02190","19","24","49.53164","4.05169","143","1"
"633","Pignicourt",,"pignicourt",,"FR","02190","19","24","49.41503","4.03095","140","1"
"634","Bertricourt",,"bertricourt",,"FR","02190","19","24","49.39545","4.00986","127","1"
"635","Proviseux-et-Plesnoy",,"proviseux-et-plesnoy",,"FR","02190","19","24","49.46487","4.00920","96","1"
"636","Soissons",,"soissons",,"FR","02200","19","24","49.38232","3.32772","29576","1"
"637","Belleu",,"belleu",,"FR","02200","19","24","49.35911","3.33470","4047","1"
"638","Villeneuve-Saint-Germain",,"villeneuve-saint-germain",,"FR","02200","19","24","49.37996","3.35764","2445","1"
"639","Pommiers",,"pommiers",,"FR","02200","19","24","49.39301","3.27229","2182","0"
"640","Courmelles",,"courmelles",,"FR","02200","19","24","49.34513","3.31189","1732","1"
"641","Venizel",,"venizel",,"FR","02200","19","24","49.36739","3.39278","1428","1"
"642","Billy-sur-Aisne",,"billy-sur-aisne",,"FR","02200","19","24","49.35634","3.38420","1137","1"
"643","Pasly",,"pasly",,"FR","02200","19","24","49.40224","3.29660","1053","1"
"644","Mercin-et-Vaux",,"mercin-et-vaux",,"FR","02200","19","24","49.37576","3.27572","975","1"
"645","Acy",,"acy",,"FR","02200","19","24","49.34531","3.41210","940","1"
"646","Vauxbuin",,"vauxbuin",,"FR","02200","19","24","49.35651","3.29262","813","1"
"647","Pernant",,"pernant",,"FR","02200","19","24","49.38034","3.23729","715","1"
"648","Septmonts",,"septmonts",,"FR","02200","19","24","49.33533","3.35818","547","1"
"649","Noyant-et-Aconin",,"noyant-et-aconin",,"FR","02200","19","24","49.33205","3.33709","485","1"
"650","Berzy-le-Sec",,"berzy-le-sec",,"FR","02200","19","24","49.33340","3.31264","403","1"
"651","Buzancy",,"buzancy",,"FR","02200","19","24","49.31330","3.34918","378","0"
"652","Vauxrezis",,"vauxrezis",,"FR","02200","19","24","49.41398","3.27988","345","1"
"653","Cuisy-en-Almont",,"cuisy-en-almont",,"FR","02200","19","24","49.41610","3.24268","343","1"
"654","Chacrise",,"chacrise",,"FR","02200","19","24","49.30538","3.40351","316","1"
"655","Chaudun",,"chaudun",,"FR","02200","19","24","49.31963","3.26424","271","1"
"656","Rozières-sur-Crise",,"rozieres-sur-crise",,"FR","02200","19","24","49.32617","3.35543","245","1"
"657","Saconin-et-Breuil",,"saconin-et-breuil",,"FR","02200","19","24","49.35584","3.24716","238","1"
"658","Missy-aux-Bois",,"missy-aux-bois",,"FR","02200","19","24","49.33619","3.24974","105","1"
"659","Ploisy",,"ploisy",,"FR","02200","19","24","49.33155","3.29101","89","1"
"660","Nampteuil-sous-Muret",,"nampteuil-sous-muret",,"FR","02200","19","24","49.30150","3.42298","77","1"
"661","Ambrief",,"ambrief",,"FR","02200","19","24","49.31650","3.40343","68","1"
"662","Grisolles",,"grisolles",,"FR","02210","19","24","49.14069","3.35792","3199","0"
"663","Oulchy-le-Château",,"oulchy-le-chateau",,"FR","02210","19","24","49.20424","3.36804","869","1"
"664","Brécy",,"brecy",,"FR","02210","19","24","49.14811","3.42890","788","0"
"665","Vierzy",,"vierzy",,"FR","02210","19","24","49.29054","3.28381","433","1"
"666","Chouy",,"chouy",,"FR","02210","19","24","49.20648","3.24760","378","1"
"667","Hartennes-et-Taux",,"hartennes-et-taux",,"FR","02210","19","24","49.27237","3.35261","353","1"
"668","Coincy",,"coincy",,"FR","02210","19","24","49.16149","3.42183","321","0"
"669","Rozet-Saint-Albin",,"rozet-saint-albin",,"FR","02210","19","24","49.19530","3.30073","321","1"
"670","Rocourt-Saint-Martin",,"rocourt-saint-martin",,"FR","02210","19","24","49.15267","3.38724","317","1"
"671","Grand-Rozoy",,"grand-rozoy",,"FR","02210","19","24","49.23473","3.38961","292","1"
"672","Breny",,"breny",,"FR","02210","19","24","49.18595","3.35366","280","1"
"673","Parcy-et-Tigny",,"parcy-et-tigny",,"FR","02210","19","24","49.27076","3.32043","249","1"
"674","Saint-Rémy-Blanzy",,"saint-remy-blanzy",,"FR","02210","19","24","49.24071","3.30970","233","1"
"675","Billy-sur-Ourcq",,"billy-sur-ourcq",,"FR","02210","19","24","49.21747","3.29996","225","1"
"676","Latilly",,"latilly",,"FR","02210","19","24","49.15454","3.31044","221","1"
"677","Villemontoire",,"villemontoire",,"FR","02210","19","24","49.30066","3.33260","213","1"
"678","Oulchy-la-Ville",,"oulchy-la-ville",,"FR","02210","19","24","49.21207","3.35353","131","1"
"679","Muret-et-Crouttes",,"muret-et-crouttes",,"FR","02210","19","24","49.28349","3.41490","130","1"
"680","Beugneux",,"beugneux",,"FR","02210","19","24","49.23338","3.41576","122","1"
"681","Armentières-sur-Ourcq",,"armentieres-sur-ourcq",,"FR","02210","19","24","49.18268","3.38735","102","1"
"682","Vichel-Nanteuil",,"vichel-nanteuil",,"FR","02210","19","24","49.18712","3.31205","97","1"
"683","La Croix-sur-Ourcq",,"la-croix-sur-ourcq",,"FR","02210","19","24","49.16822","3.35353","96","1"
"684","Launoy",,"launoy",,"FR","02210","19","24","49.26436","3.39970","93","1"
"685","Le Plessier-Huleu",,"le-plessier-huleu",,"FR","02210","19","24","49.23847","3.34351","83","1"
"686","Droizy",,"droizy",,"FR","02210","19","24","49.27682","3.39345","79","1"
"687","Nanteuil-Notre-Dame",,"nanteuil-notre-dame",,"FR","02210","19","24","49.19172","3.40851","74","1"
"688","Montgru-Saint-Hilaire",,"montgru-saint-hilaire",,"FR","02210","19","24","49.18934","3.32797","34","1"
"689","Mont-Saint-Martin",,"mont-saint-martin",,"FR","02220","19","24","49.28207","3.63912","8213","0"
"690","Braine",,"braine",,"FR","02220","19","24","49.34188","3.53485","2132","1"
"691","Augy",,"augy",,"FR","02220","19","24","49.33883","3.51459","1174","0"
"692","Ciry-Salsogne",,"ciry-salsogne",,"FR","02220","19","24","49.36268","3.46315","818","1"
"693","Mont-Notre-Dame",,"mont-notre-dame",,"FR","02220","19","24","49.29370","3.58409","657","1"
"694","Bazoches-sur-Vesles",,"bazoches-sur-vesles",,"FR","02220","19","24","49.30756","3.61944","448","1"
"695","Chéry-Chartreuve",,"chery-chartreuve",,"FR","02220","19","24","49.26188","3.61626","331","1"
"696","Courcelles-sur-Vesles",,"courcelles-sur-vesles",,"FR","02220","19","24","49.33832","3.57088","326","1"
"697","Sermoise",,"sermoise",,"FR","02220","19","24","49.37391","3.45013","326","1"
"698","Serches",,"serches",,"FR","02220","19","24","49.33926","3.45063","306","1"
"699","Paars",,"paars",,"FR","02220","19","24","49.32826","3.60015","256","1"
"700","Couvrelles",,"couvrelles",,"FR","02220","19","24","49.33768","3.48796","204","1"
"701","Saint-Mard",,"saint-mard",,"FR","02220","19","24","49.38631","3.58274","203","0"
"702","Vasseny",,"vasseny",,"FR","02220","19","24","49.35222","3.48503","195","1"
"703","Brenelle",,"brenelle",,"FR","02220","19","24","49.36726","3.54353","184","1"
"704","Limé",,"lime",,"FR","02220","19","24","49.32219","3.54733","179","1"
"705","Jouaignes",,"jouaignes",,"FR","02220","19","24","49.29989","3.53735","166","1"
"706","Maast-et-Violaine",,"maast-et-violaine",,"FR","02220","19","24","49.28373","3.44902","162","1"
"707","Lhuys",,"lhuys",,"FR","02220","19","24","49.28149","3.55610","141","1"
"708","Cys-la-Commune",,"cys-la-commune",,"FR","02220","19","24","49.39231","3.57324","138","1"
"709","Cuiry-Housse",,"cuiry-housse",,"FR","02220","19","24","49.29447","3.49232","110","1"
"710","Dhuizel",,"dhuizel",,"FR","02220","19","24","49.36521","3.61771","104","1"
"711","Lesges",,"lesges",,"FR","02220","19","24","49.30748","3.50975","87","1"
"712","Cerseuil",,"cerseuil",,"FR","02220","19","24","49.32290","3.52195","85","1"
"713","Saint-Thibaut",,"saint-thibaut",,"FR","02220","19","24","49.29988","3.61735","67","1"
"714","Quincy-sous-le-Mont",,"quincy-sous-le-mont",,"FR","02220","19","24","49.30714","3.55352","64","1"
"715","Ville-Savoye",,"ville-savoye",,"FR","02220","19","24","49.29427","3.64050","59","1"
"716","Vauxtin",,"vauxtin",,"FR","02220","19","24","49.35020","3.60215","51","1"
"717","Bruys",,"bruys",,"FR","02220","19","24","49.27019","3.56362","20","1"
"718","Tannières",,"tannieres",,"FR","02220","19","24","49.29082","3.55268","14","1"
"719","Fresnoy-le-Grand",,"fresnoy-le-grand",,"FR","02230","19","24","49.94711","3.41497","3050","1"
"720","Ribemont",,"ribemont",,"FR","02240","19","24","49.79653","3.46225","2109","1"
"721","Itancourt",,"itancourt",,"FR","02240","19","24","49.80815","3.34566","1132","1"
"722","Séry-lès-Mézières",,"sery-les-mezieres",,"FR","02240","19","24","49.77407","3.41953","661","1"
"723","Brissy-Hamégicourt",,"brissy-hamegicourt",,"FR","02240","19","24","49.74293","3.37989","648","1"
"724","Mézières-sur-Oise",,"mezieres-sur-oise",,"FR","02240","19","24","49.78222","3.40049","554","1"
"725","Villers-le-Sec",,"villers-le-sec",,"FR","02240","19","24","49.77848","3.50037","543","0"
"726","Sissy",,"sissy",,"FR","02240","19","24","49.80298","3.43073","509","1"
"727","Brissay-Choigny",,"brissay-choigny",,"FR","02240","19","24","49.72414","3.37650","324","1"
"728","Parpeville",,"parpeville",,"FR","02240","19","24","49.78423","3.54714","231","1"
"729","Regny",,"regny",,"FR","02240","19","24","49.83114","3.43005","223","0"
"730","Pleine-Selve",,"pleine-selve",,"FR","02240","19","24","49.79222","3.52754","211","0"
"731","Berthenicourt",,"berthenicourt",,"FR","02240","19","24","49.77209","3.38274","207","1"
"732","Renansart",,"renansart",,"FR","02240","19","24","49.73227","3.46692","172","1"
"733","Châtillon-sur-Oise",,"chatillon-sur-oise",,"FR","02240","19","24","49.79110","3.41930","138","1"
"734","Alaincourt",,"alaincourt",,"FR","02240","19","24","49.76395","3.37556","97","0"
"735","Surfontaine",,"surfontaine",,"FR","02240","19","24","49.75042","3.46543","97","1"
"736","Cerizy",,"cerizy",,"FR","02240","19","24","49.76078","3.32938","57","1"
"737","Marle",,"marle",,"FR","02250","19","24","49.74012","3.77092","2484","0"
"738","Tavaux-et-Pontséricourt",,"tavaux-et-pontsericourt",,"FR","02250","19","24","49.73062","3.90141","556","1"
"739","Berlancourt",,"berlancourt",,"FR","02250","19","24","49.77931","3.75663","304","0"
"740","Erlon",,"erlon",,"FR","02250","19","24","49.72863","3.71565","296","1"
"741","Voyenne",,"voyenne",,"FR","02250","19","24","49.72504","3.72939","286","1"
"742","Cilly",,"cilly",,"FR","02250","19","24","49.73786","3.83203","230","1"
"743","Marcy-sous-Marle",,"marcy-sous-marle",,"FR","02250","19","24","49.73830","3.73783","213","1"
"744","Bosmont-sur-Serre",,"bosmont-sur-serre",,"FR","02250","19","24","49.73299","3.85710","208","1"
"745","Housset",,"housset",,"FR","02250","19","24","49.79549","3.70937","192","1"
"746","La Neuville-Bosmont",,"la-neuville-bosmont",,"FR","02250","19","24","49.71253","3.83994","189","1"
"747","Montigny-le-Franc",,"montigny-le-franc",,"FR","02250","19","24","49.68888","3.90750","171","1"
"748","Autremencourt",,"autremencourt",,"FR","02250","19","24","49.70509","3.78549","169","1"
"749","Saint-Pierremont",,"saint-pierremont",,"FR","02250","19","24","49.72180","3.88167","166","0"
"750","Chevennes",,"chevennes",,"FR","02250","19","24","49.81466","3.73198","149","1"
"751","Toulis-et-Attencourt",,"toulis-et-attencourt",,"FR","02250","19","24","49.69989","3.74403","130","1"
"752","Thiernu",,"thiernu",,"FR","02250","19","24","49.76031","3.78883","124","1"
"753","Montigny-sous-Marle",,"montigny-sous-marle",,"FR","02250","19","24","49.74784","3.79123","70","1"
"754","La Neuville-Housset",,"la-neuville-housset",,"FR","02250","19","24","49.79176","3.72850","63","1"
"755","La Capelle",,"la-capelle",,"FR","02260","19","24","49.97476","3.91666","2012","0"
"756","Clairfontaine",,"clairfontaine",,"FR","02260","19","24","49.98127","3.98643","696","1"
"757","La Flamengrie",,"la-flamengrie",,"FR","02260","19","24","50.00355","3.91998","400","0"
"758","Rocquigny",,"rocquigny",,"FR","02260","19","24","50.02416","3.98086","295","0"
"759","Froidestrées",,"froidestrees",,"FR","02260","19","24","49.94030","3.90413","208","1"
"760","Lerzy",,"lerzy",,"FR","02260","19","24","49.94415","3.88105","183","1"
"761","Saint-Algis",,"saint-algis",,"FR","02260","19","24","49.90036","3.82289","162","1"
"762","Gergny",,"gergny",,"FR","02260","19","24","49.91427","3.93265","161","1"
"763","Sommeron",,"sommeron",,"FR","02260","19","24","49.95187","3.93963","137","1"
"764","Englancourt",,"englancourt",,"FR","02260","19","24","49.91694","3.79892","120","1"
"765","Papleux",,"papleux",,"FR","02260","19","24","50.02130","3.88424","112","1"
"766","Erloy",,"erloy",,"FR","02260","19","24","49.91106","3.82886","105","1"
"767","Crécy-sur-Serre",,"crecy-sur-serre",,"FR","02270","19","24","49.69821","3.62184","1537","1"
"768","Couvron-et-Aumencourt",,"couvron-et-aumencourt",,"FR","02270","19","24","49.64431","3.51733","1433","1"
"769","La Ferté-Chevresis",,"la-ferte-chevresis",,"FR","02270","19","24","49.73684","3.55802","600","1"
"770","Pouilly-sur-Serre",,"pouilly-sur-serre",,"FR","02270","19","24","49.68213","3.58934","578","1"
"771","Nouvion-et-Catillon",,"nouvion-et-catillon",,"FR","02270","19","24","49.70210","3.48486","544","1"
"772","Monceau-lès-Leups",,"monceau-les-leups",,"FR","02270","19","24","49.67340","3.49655","448","1"
"773","Dercy",,"dercy",,"FR","02270","19","24","49.70533","3.68506","402","1"
"774","Chevresis-Monceau",,"chevresis-monceau",,"FR","02270","19","24","49.75459","3.57218","363","1"
"775","Monceau-le-Neuf-et-Faucouzy",,"monceau-le-neuf-et-faucouzy",,"FR","02270","19","24","49.77087","3.61378","341","1"
"776","Montigny-sur-Crécy",,"montigny-sur-crecy",,"FR","02270","19","24","49.71595","3.58469","314","1"
"777","Mesbrecourt-Richecourt",,"mesbrecourt-richecourt",,"FR","02270","19","24","49.70181","3.54130","295","1"
"778","Assis-sur-Serre",,"assis-sur-serre",,"FR","02270","19","24","49.68804","3.55858","254","1"
"779","Remies",,"remies",,"FR","02270","19","24","49.68069","3.52276","246","1"
"780","Sons-et-Ronchères",,"sons-et-roncheres",,"FR","02270","19","24","49.76059","3.67107","231","1"
"781","Chalandry",,"chalandry",,"FR","02270","19","24","49.67651","3.64261","216","1"
"782","Froidmont-Cohartille",,"froidmont-cohartille",,"FR","02270","19","24","49.67886","3.69403","197","1"
"783","Mortiers",,"mortiers",,"FR","02270","19","24","49.68672","3.66745","195","0"
"784","Bois-lès-Pargny",,"bois-les-pargny",,"FR","02270","19","24","49.73146","3.64757","170","1"
"785","Pargny-les-Bois",,"pargny-les-bois",,"FR","02270","19","24","49.72613","3.62370","142","1"
"786","Barenton-sur-Serre",,"barenton-sur-serre",,"FR","02270","19","24","49.67137","3.68090","112","1"
"787","Châtillon-lès-Sons",,"chatillon-les-sons",,"FR","02270","19","24","49.76008","3.68688","85","1"
"788","Vic-sur-Aisne",,"vic-sur-aisne",,"FR","02290","19","24","49.40641","3.11334","1747","1"
"789","Ambleny",,"ambleny",,"FR","02290","19","24","49.38045","3.18341","1242","1"
"790","Ressons-le-Long",,"ressons-le-long",,"FR","02290","19","24","49.38780","3.14943","794","1"
"791","Montigny-Lengrain",,"montigny-lengrain",,"FR","02290","19","24","49.37190","3.09982","674","1"
"792","Berny-Rivière",,"berny-riviere",,"FR","02290","19","24","49.40985","3.13932","603","1"
"793","Epagny",,"epagny",,"FR","02290","19","24","49.46139","3.24056","594","0"
"794","Morsain",,"morsain",,"FR","02290","19","24","49.45351","3.18062","436","1"
"795","Saint-Christophe-à-Berry",,"saint-christophe-a-berry",,"FR","02290","19","24","49.42249","3.13176","424","1"
"796","Fontenoy",,"fontenoy",,"FR","02290","19","24","49.40715","3.19883","324","0"
"797","Osly-Courtil",,"osly-courtil",,"FR","02290","19","24","49.40114","3.22652","300","1"
"798","Saint-Bandry",,"saint-bandry",,"FR","02290","19","24","49.37135","3.16896","238","1"
"799","Nouvron-Vingré",,"nouvron-vingre",,"FR","02290","19","24","49.42885","3.19956","216","1"
"800","Tartiers",,"tartiers",,"FR","02290","19","24","49.43416","3.23874","170","1"
"801","Vassens",,"vassens",,"FR","02290","19","24","49.46716","3.15576","161","1"
"802","Vézaponin",,"vezaponin",,"FR","02290","19","24","49.45896","3.22815","126","1"
"803","Bagneux",,"bagneux",,"FR","02290","19","24","49.45763","3.27966","71","0"
"804","Bieuxy",,"bieuxy",,"FR","02290","19","24","49.44672","3.26211","25","1"
"805","Chauny",,"chauny",,"FR","02300","19","24","49.61293","3.21989","13092","1"
"806","Sinceny",,"sinceny",,"FR","02300","19","24","49.59631","3.24522","2173","1"
"807","Viry-Noureuil",,"viry-noureuil",,"FR","02300","19","24","49.64663","3.24622","1989","1"
"808","Blérancourt",,"blerancourt",,"FR","02300","19","24","49.51628","3.15155","1308","1"
"809","Bichancourt",,"bichancourt",,"FR","02300","19","24","49.57945","3.21292","945","1"
"810","Saint-Aubin",,"saint-aubin",,"FR","02300","19","24","49.50980","3.18948","673","0"
"811","Villequier-Aumont",,"villequier-aumont",,"FR","02300","19","24","49.65756","3.20660","614","1"
"812","Trosly-Loire",,"trosly-loire",,"FR","02300","19","24","49.51807","3.22721","595","1"
"813","Abbécourt",,"abbecourt",,"FR","02300","19","24","49.59525","3.18078","487","0"
"814","Camelin",,"camelin",,"FR","02300","19","24","49.52503","3.13455","449","1"
"815","Guny",,"guny",,"FR","02300","19","24","49.51916","3.26714","438","1"
"816","Caillouël-Crépigny",,"caillouel-crepigny",,"FR","02300","19","24","49.62059","3.12925","432","1"
"817","Quierzy",,"quierzy",,"FR","02300","19","24","49.57088","3.14404","421","1"
"818","Béthancourt-en-Vaux",,"bethancourt-en-vaux",,"FR","02300","19","24","49.62677","3.14591","398","1"
"819","Saint-Paul-aux-Bois",,"saint-paul-aux-bois",,"FR","02300","19","24","49.53304","3.20499","397","1"
"820","Marest-Dampcourt",,"marest-dampcourt",,"FR","02300","19","24","49.59163","3.13707","336","1"
"821","Manicamp",,"manicamp",,"FR","02300","19","24","49.57177","3.16893","332","1"
"822","Caumont",,"caumont",,"FR","02300","19","24","49.63141","3.17870","301","0"
"823","Pierremande",,"pierremande",,"FR","02300","19","24","49.57130","3.24994","274","1"
"824","Ognes",,"ognes",,"FR","02300","19","24","49.61269","3.19397","261","0"
"825","Guivry",,"guivry",,"FR","02300","19","24","49.64624","3.11967","252","1"
"826","Selens",,"selens",,"FR","02300","19","24","49.50148","3.20907","239","1"
"827","Commenchon",,"commenchon",,"FR","02300","19","24","49.63947","3.15830","176","1"
"828","La Neuville-en-Beine",,"la-neuville-en-beine",,"FR","02300","19","24","49.67511","3.15149","172","1"
"829","Autreville",,"autreville",,"FR","02300","19","24","49.58585","3.23945","160","0"
"830","Ugny-le-Gay",,"ugny-le-gay",,"FR","02300","19","24","49.65914","3.15970","158","1"
"831","Besmé",,"besme",,"FR","02300","19","24","49.53948","3.16350","158","1"
"832","Beaumont-en-Beine",,"beaumont-en-beine",,"FR","02300","19","24","49.69075","3.13017","153","1"
"833","Audignicourt",,"audignicourt",,"FR","02300","19","24","49.47695","3.13413","108","1"
"834","Bourguignon-sous-Coucy",,"bourguignon-sous-coucy",,"FR","02300","19","24","49.54359","3.15830","91","1"
"835","Neuflieux",,"neuflieux",,"FR","02300","19","24","49.61945","3.15983","89","1"
"836","Charly-sur-Marne",,"charly-sur-marne",,"FR","02310","19","24","48.97701","3.28680","2761","1"
"837","Nogent-l'Artaud",,"nogent-l-artaud",,"FR","02310","19","24","48.96628","3.32361","2162","1"
"838","Montreuil-aux-Lions",,"montreuil-aux-lions",,"FR","02310","19","24","49.02036","3.19548","1368","1"
"839","Villiers-Saint-Denis",,"villiers-saint-denis",,"FR","02310","19","24","48.99243","3.26769","1036","1"
"840","Pavant",,"pavant",,"FR","02310","19","24","48.95084","3.28537","770","1"
"841","Saulchery",,"saulchery",,"FR","02310","19","24","48.97568","3.30234","689","1"
"842","Crouttes-sur-Marne",,"crouttes-sur-marne",,"FR","02310","19","24","48.97944","3.24015","666","1"
"843","Domptin",,"domptin",,"FR","02310","19","24","49.01650","3.27822","638","1"
"844","Romeny-sur-Marne",,"romeny-sur-marne",,"FR","02310","19","24","48.97586","3.33563","481","1"
"845","Bézu-le-Guéry",,"bezu-le-guery",,"FR","02310","19","24","49.00727","3.22476","249","1"
"846","Coupru",,"coupru",,"FR","02310","19","24","49.03086","3.27168","178","1"
"847","Anizy-le-Château",,"anizy-le-chateau",,"FR","02320","19","24","49.50545","3.45151","1927","1"
"848","Pinon",,"pinon",,"FR","02320","19","24","49.48854","3.44819","1767","0"
"849","Prémontré",,"premontre",,"FR","02320","19","24","49.54034","3.41388","776","1"
"850","Brancourt-en-Laonnois",,"brancourt-en-laonnois",,"FR","02320","19","24","49.51444","3.41939","668","1"
"851","Cessières",,"cessieres",,"FR","02320","19","24","49.55881","3.49548","449","1"
"852","Vauxaillon",,"vauxaillon",,"FR","02320","19","24","49.47679","3.40652","440","1"
"853","Faucoucourt",,"faucoucourt",,"FR","02320","19","24","49.53464","3.46495","308","1"
"854","Suzy",,"suzy",,"FR","02320","19","24","49.55017","3.46727","299","1"
"855","Lizy",,"lizy",,"FR","02320","19","24","49.51465","3.48118","262","1"
"856","Vaudesson",,"vaudesson",,"FR","02320","19","24","49.46973","3.48470","255","1"
"857","Allemant",,"allemant",,"FR","02320","19","24","49.46052","3.45147","154","0"
"858","Wissignicourt",,"wissignicourt",,"FR","02320","19","24","49.52363","3.44733","150","1"
"859","Saint-Agnan",,"saint-agnan",,"FR","02330","19","24","49.02000","3.59324","890","0"
"860","Condé-en-Brie",,"conde-en-brie",,"FR","02330","19","24","49.00469","3.56040","641","1"
"861","Connigis",,"connigis",,"FR","02330","19","24","49.03269","3.53246","314","1"
"862","Baulne-en-Brie",,"baulne-en-brie",,"FR","02330","19","24","48.98741","3.61442","288","1"
"863","Courboin",,"courboin",,"FR","02330","19","24","48.99420","3.50517","276","1"
"864","Montlevon",,"montlevon",,"FR","02330","19","24","48.96544","3.53935","260","1"
"865","La Chapelle-Monthodon",,"la-chapelle-monthodon",,"FR","02330","19","24","49.02300","3.63435","190","1"
"866","Saint-Eugène",,"saint-eugene",,"FR","02330","19","24","49.02324","3.53136","183","0"
"867","Pargny-la-Dhuys",,"pargny-la-dhuys",,"FR","02330","19","24","48.95378","3.55337","170","1"
"868","Artonges",,"artonges",,"FR","02330","19","24","48.92956","3.55353","162","1"
"869","Monthurel",,"monthurel",,"FR","02330","19","24","49.02280","3.54599","162","1"
"870","Celles-lès-Condé",,"celles-les-conde",,"FR","02330","19","24","49.01334","3.56758","81","1"
"871","Montigny-lès-Condé",,"montigny-les-conde",,"FR","02330","19","24","48.98645","3.56761","54","1"
"872","Dizy-le-Gros",,"dizy-le-gros",,"FR","02340","19","24","49.62960","4.02049","780","1"
"873","Chaourse",,"chaourse",,"FR","02340","19","24","49.70442","3.99865","553","1"
"874","Vigneux-Hocquet",,"vigneux-hocquet",,"FR","02340","19","24","49.73925","3.99002","284","1"
"875","Sainte-Geneviève",,"sainte-genevieve",,"FR","02340","19","24","49.71961","4.07334","279","0"
"876","Lislet",,"lislet",,"FR","02340","19","24","49.68573","4.02200","249","1"
"877","Montcornet",,"montcornet",,"FR","02340","19","24","49.69427","4.01782","239","0"
"878","La Ville-aux-Bois-lès-Dizy",,"la-ville-aux-bois-les-dizy",,"FR","02340","19","24","49.66255","3.99084","198","1"
"879","Agnicourt-et-Séchelles",,"agnicourt-et-sechelles",,"FR","02340","19","24","49.71653","3.95353","195","1"
"880","Montloué",,"montloue",,"FR","02340","19","24","49.67365","4.07069","176","1"
"881","Le Thuel",,"le-thuel",,"FR","02340","19","24","49.64824","4.07618","168","1"
"882","Clermont-les-Fermes",,"clermont-les-fermes",,"FR","02340","19","24","49.66709","3.93439","138","1"
"883","Vincy-Reuil-et-Magny",,"vincy-reuil-et-magny",,"FR","02340","19","24","49.71623","4.06103","134","1"
"884","Renneval",,"renneval",,"FR","02340","19","24","49.74051","4.04864","133","1"
"885","Berlise",,"berlise",,"FR","02340","19","24","49.66448","4.10652","119","1"
"886","Soize",,"soize",,"FR","02340","19","24","49.70145","4.08337","102","0"
"887","Noircourt",,"noircourt",,"FR","02340","19","24","49.66690","4.09170","96","1"
"888","Liesse-Notre-Dame",,"liesse-notre-dame",,"FR","02350","19","24","49.60971","3.80363","1356","1"
"889","Pierrepont",,"pierrepont",,"FR","02350","19","24","49.65406","3.79206","953","0"
"890","Gizy",,"gizy",,"FR","02350","19","24","49.60135","3.77395","712","1"
"891","Bucy-lès-Pierrepont",,"bucy-les-pierrepont",,"FR","02350","19","24","49.64688","3.90107","433","1"
"892","Marchais",,"marchais",,"FR","02350","19","24","49.58355","3.81716","367","1"
"893","Chivres-en-Laonnois",,"chivres-en-laonnois",,"FR","02350","19","24","49.63335","3.84143","347","1"
"894","Grandlup-et-Fay",,"grandlup-et-fay",,"FR","02350","19","24","49.65760","3.73760","322","1"
"895","Ebouleau",,"ebouleau",,"FR","02350","19","24","49.67210","3.87404","274","1"
"896","Vesles-et-Caumont",,"vesles-et-caumont",,"FR","02350","19","24","49.66832","3.78347","195","1"
"897","Boncourt",,"boncourt",,"FR","02350","19","24","49.61603","3.94721","189","0"
"898","Cuirieux",,"cuirieux",,"FR","02350","19","24","49.68083","3.81511","163","1"
"899","Mâchecourt",,"machecourt",,"FR","02350","19","24","49.65420","3.84183","138","1"
"900","Goudelancourt-lès-Pierrepont",,"goudelancourt-les-pierrepont",,"FR","02350","19","24","49.66674","3.85328","135","1"
"901","Missy-lès-Pierrepont",,"missy-les-pierrepont",,"FR","02350","19","24","49.63241","3.78523","100","1"
"902","Sainte-Preuve",,"sainte-preuve",,"FR","02350","19","24","49.61872","3.90573","90","1"
"903","Saint-Clément",,"saint-clement",,"FR","02360","19","24","49.77642","4.07114","2979","0"
"904","Rozoy-sur-Serre",,"rozoy-sur-serre",,"FR","02360","19","24","49.70950","4.12868","1055","1"
"905","Mont-Saint-Jean",,"mont-saint-jean",,"FR","02360","19","24","49.78938","4.20821","663","0"
"906","Brunehamel",,"brunehamel",,"FR","02360","19","24","49.76930","4.18207","542","1"
"907","Iviers",,"iviers",,"FR","02360","19","24","49.78365","4.14427","173","1"
"908","Résigny",,"resigny",,"FR","02360","19","24","49.73684","4.20697","172","1"
"909","Parfondeval",,"parfondeval",,"FR","02360","19","24","49.73906","4.15973","106","0"
"910","Chéry-lès-Rozoy",,"chery-les-rozoy",,"FR","02360","19","24","49.71973","4.09134","102","1"
"911","Grandrieux",,"grandrieux",,"FR","02360","19","24","49.73264","4.18237","95","1"
"912","Archon",,"archon",,"FR","02360","19","24","49.73954","4.11768","94","1"
"913","Morgny-en-Thiérache",,"morgny-en-thierache",,"FR","02360","19","24","49.76008","4.07603","92","1"
"914","Dohis",,"dohis",,"FR","02360","19","24","49.76215","4.13990","86","1"
"915","Raillimont",,"raillimont",,"FR","02360","19","24","49.70626","4.15302","86","1"
"916","Coingt",,"coingt",,"FR","02360","19","24","49.79087","4.08602","82","1"
"917","Les Autels",,"les-autels",,"FR","02360","19","24","49.76374","4.22453","75","1"
"918","Dolignon",,"dolignon",,"FR","02360","19","24","49.73071","4.08414","58","1"
"919","Rouvroy-sur-Serre",,"rouvroy-sur-serre",,"FR","02360","19","24","49.72010","4.17458","47","1"
"920","Cuiry-lès-Iviers",,"cuiry-les-iviers",,"FR","02360","19","24","49.76132","4.10925","40","1"
"921","Vailly-sur-Aisne",,"vailly-sur-aisne",,"FR","02370","19","24","49.41047","3.51693","2145","1"
"922","Chassemy",,"chassemy",,"FR","02370","19","24","49.37970","3.50676","789","1"
"923","Presles-et-Boves",,"presles-et-boves",,"FR","02370","19","24","49.39346","3.56082","364","1"
"924","Condé-sur-Aisne",,"conde-sur-aisne",,"FR","02370","19","24","49.39760","3.46850","361","1"
"925","Aizy-Jouy",,"aizy-jouy",,"FR","02370","19","24","49.43547","3.51645","264","1"
"926","Celles-sur-Aisne",,"celles-sur-aisne",,"FR","02370","19","24","49.40677","3.48132","247","1"
"927","Chavonne",,"chavonne",,"FR","02370","19","24","49.40511","3.56979","189","1"
"928","Ostel",,"ostel",,"FR","02370","19","24","49.42987","3.57099","84","1"
"929","Coucy-le-Château-Auffrique",,"coucy-le-chateau-auffrique",,"FR","02380","19","24","49.51933","3.32411","1106","1"
"930","Leuilly-sous-Coucy",,"leuilly-sous-coucy",,"FR","02380","19","24","49.47888","3.35780","426","1"
"931","Crécy-au-Mont",,"crecy-au-mont",,"FR","02380","19","24","49.48664","3.32217","336","1"
"932","Coucy-la-Ville",,"coucy-la-ville",,"FR","02380","19","24","49.53302","3.32909","242","1"
"933","Pont-Saint-Mard",,"pont-saint-mard",,"FR","02380","19","24","49.49884","3.28734","185","1"
"934","Jumencourt",,"jumencourt",,"FR","02380","19","24","49.50896","3.35441","157","1"
"935","Landricourt",,"landricourt",,"FR","02380","19","24","49.50797","3.36622","155","0"
"936","Fresnes",,"fresnes",,"FR","02380","19","24","49.55419","3.36960","148","0"
"937","Bassoles-Aulers",,"bassoles-aulers",,"FR","02380","19","24","49.52749","3.38210","141","1"
"938","Verneuil-sous-Coucy",,"verneuil-sous-coucy",,"FR","02380","19","24","49.54196","3.31474","128","1"
"939","Quincy-Basse",,"quincy-basse",,"FR","02380","19","24","49.51576","3.37690","52","1"
"940","Origny-Sainte-Benoite",,"origny-sainte-benoite",,"FR","02390","19","24","49.83946","3.48804","1720","1"
"941","Mont-d'Origny",,"mont-d-origny",,"FR","02390","19","24","49.84296","3.50003","898","1"
"942","Thenelles",,"thenelles",,"FR","02390","19","24","49.83316","3.47063","588","1"
"943","Neuvillette",,"neuvillette",,"FR","02390","19","24","49.85308","3.48218","180","0"
"944","Etampes-sur-Marne",,"etampes-sur-marne",,"FR","02400","19","24","49.03463","3.42065","22956","1"
"945","Château-Thierry",,"chateau-thierry",,"FR","02400","19","24","49.04704","3.39853","15239","1"
"946","Essômes-sur-Marne",,"essomes-sur-marne",,"FR","02400","19","24","49.02960","3.37482","2511","1"
"947","Brasles",,"brasles",,"FR","02400","19","24","49.04828","3.42729","1297","1"
"948","Nesles-la-Montagne",,"nesles-la-montagne",,"FR","02400","19","24","49.02004","3.42563","1149","1"
"949","Nogentel",,"nogentel",,"FR","02400","19","24","49.01491","3.40196","1082","1"
"950","Chierry",,"chierry",,"FR","02400","19","24","49.03948","3.43213","1081","1"
"951","Belleau",,"belleau",,"FR","02400","19","24","49.08416","3.29209","739","0"
"952","Bézu-Saint-Germain",,"bezu-saint-germain",,"FR","02400","19","24","49.10820","3.40847","653","1"
"953","Epieds",,"epieds",,"FR","02400","19","24","49.10482","3.44535","631","0"
"954","Mont-Saint-Père",,"mont-saint-pere",,"FR","02400","19","24","49.07540","3.49264","618","1"
"955","Verdilly",,"verdilly",,"FR","02400","19","24","49.07176","3.42457","457","1"
"956","Bonneil",,"bonneil",,"FR","02400","19","24","49.00863","3.35092","413","1"
"957","Blesmes",,"blesmes",,"FR","02400","19","24","49.03751","3.45026","392","1"
"958","Azy-sur-Marne",,"azy-sur-marne",,"FR","02400","19","24","49.00115","3.36169","382","1"
"959","Chartèves",,"charteves",,"FR","02400","19","24","49.07487","3.50537","363","1"
"960","Etrépilly",,"etrepilly",,"FR","02400","19","24","49.08529","3.33772","269","0"
"961","Bouresches",,"bouresches",,"FR","02400","19","24","49.06252","3.30858","213","1"
"962","Bonnesvalyn",,"bonnesvalyn",,"FR","02400","19","24","49.12091","3.31760","202","1"
"963","Lucy-le-Bocage",,"lucy-le-bocage",,"FR","02400","19","24","49.05706","3.27813","181","1"
"964","Monthiers",,"monthiers",,"FR","02400","19","24","49.10268","3.29905","152","1"
"965","Epaux-Bézu",,"epaux-bezu",,"FR","02400","19","24","49.10824","3.34720","116","1"
"966","Gland",,"gland",,"FR","02400","19","24","49.04778","3.46306","51","0"
"967","Saint-Gobain",,"saint-gobain",,"FR","02410","19","24","49.59539","3.37997","2409","1"
"968","Septvaux",,"septvaux",,"FR","02410","19","24","49.57012","3.37757","208","1"
"969","Saint-Nicolas-aux-Bois",,"saint-nicolas-aux-bois",,"FR","02410","19","24","49.59208","3.42981","107","1"
"970","Estrées",,"estrees",,"FR","02420","19","24","49.96712","3.28701","1087","0"
"971","Gouy",,"gouy",,"FR","02420","19","24","50.00206","3.25492","788","0"
"972","Lehaucourt",,"lehaucourt",,"FR","02420","19","24","49.91941","3.27944","781","1"
"973","Nauroy",,"nauroy",,"FR","02420","19","24","49.95387","3.25467","694","1"
"974","Bellicourt",,"bellicourt",,"FR","02420","19","24","49.96117","3.23137","657","1"
"975","Levergies",,"levergies",,"FR","02420","19","24","49.92830","3.31062","614","1"
"976","Vendhuile",,"vendhuile",,"FR","02420","19","24","50.01119","3.20755","515","1"
"977","Bellenglise",,"bellenglise",,"FR","02420","19","24","49.92318","3.24362","400","1"
"978","Hargicourt",,"hargicourt",,"FR","02420","19","24","49.96378","3.17770","370","0"
"979","Joncourt",,"joncourt",,"FR","02420","19","24","49.95499","3.29988","335","1"
"980","Aubencheul-aux-Bois",,"aubencheul-aux-bois",,"FR","02420","19","24","50.02848","3.26605","310","1"
"981","Sequehart",,"sequehart",,"FR","02420","19","24","49.92813","3.33257","229","1"
"982","Le Catelet",,"le-catelet",,"FR","02420","19","24","50.00312","3.24629","206","1"
"983","Magny-la-Fosse",,"magny-la-fosse",,"FR","02420","19","24","49.93210","3.27684","135","1"
"984","Bony",,"bony",,"FR","02420","19","24","49.98752","3.22297","121","1"
"985","Lempire",,"lempire",,"FR","02420","19","24","49.99158","3.17154","95","1"
"986","Villeret",,"villeret",,"FR","02420","19","24","49.95298","3.19195","77","0"
"987","Gauchy",,"gauchy",,"FR","02430","19","24","49.82282","3.26858","5802","1"
"988","Montescourt-Lizerolles",,"montescourt-lizerolles",,"FR","02440","19","24","49.73596","3.26035","1663","1"
"989","Clastres",,"clastres",,"FR","02440","19","24","49.74610","3.23186","516","1"
"990","Remigny",,"remigny",,"FR","02440","19","24","49.71824","3.29002","433","0"
"991","Benay",,"benay",,"FR","02440","19","24","49.76160","3.30506","206","1"
"992","Ly-Fontaine",,"ly-fontaine",,"FR","02440","19","24","49.73497","3.30748","105","1"
"993","Gibercourt",,"gibercourt",,"FR","02440","19","24","49.73699","3.28456","40","1"
"994","Hinacourt",,"hinacourt",,"FR","02440","19","24","49.74559","3.29608","38","1"
"995","Boué",,"boue",,"FR","02450","19","24","50.01239","3.69860","1294","1"
"996","Oisy",,"oisy",,"FR","02450","19","24","50.02091","3.66805","513","0"
"997","Fesmy-le-Sart",,"fesmy-le-sart",,"FR","02450","19","24","50.04089","3.67735","490","1"
"998","La Neuville-lès-Dorengt",,"la-neuville-les-dorengt",,"FR","02450","19","24","49.97654","3.68345","379","1"
"999","Lavaqueresse",,"lavaqueresse",,"FR","02450","19","24","49.94842","3.71098","214","1"
"1000","Bergues-sur-Sambre",,"bergues-sur-sambre",,"FR","02450","19","24","50.03327","3.70571","200","1"
"1001","Dorengt",,"dorengt",,"FR","02450","19","24","49.97477","3.67916","149","1"
"1002","La Ferté-Milon",,"la-ferte-milon",,"FR","02460","19","24","49.17739","3.12545","2444","1"
"1003","Troësnes",,"troesnes",,"FR","02460","19","24","49.19297","3.16993","240","1"
"1004","Silly-la-Poterie",,"silly-la-poterie",,"FR","02460","19","24","49.19699","3.14693","144","1"
"1005","Neuilly-Saint-Front",,"neuilly-saint-front",,"FR","02470","19","24","49.17100","3.26160","2153","1"
"1006","Dammard",,"dammard",,"FR","02470","19","24","49.14526","3.19754","425","1"
"1007","Passy-en-Valois",,"passy-en-valois",,"FR","02470","19","24","49.16797","3.19378","144","1"
"1008","Marizy-Sainte-Geneviève",,"marizy-sainte-genevieve",,"FR","02470","19","24","49.18256","3.20269","135","1"
"1009","Monnes",,"monnes",,"FR","02470","19","24","49.14756","3.22036","90","1"
"1010","Macogny",,"macogny",,"FR","02470","19","24","49.16568","3.22903","66","1"
"1011","Sommelans",,"sommelans",,"FR","02470","19","24","49.13770","3.29346","57","1"
"1012","Priez",,"priez",,"FR","02470","19","24","49.13728","3.26349","51","1"
"1013","Marizy-Saint-Mard",,"marizy-saint-mard",,"FR","02470","19","24","49.17899","3.22305","40","1"
"1014","Dury",,"dury",,"FR","02480","19","24","49.75056","3.13182","1306","0"
"1015","Cugny",,"cugny",,"FR","02480","19","24","49.70762","3.15608","556","1"
"1016","Jussy",,"jussy",,"FR","02480","19","24","49.71849","3.22800","462","0"
"1017","Annois",,"annois",,"FR","02480","19","24","49.71876","3.17699","379","1"
"1018","Artemps",,"artemps",,"FR","02480","19","24","49.76610","3.19445","362","1"
"1019","Happencourt",,"happencourt",,"FR","02480","19","24","49.77715","3.18736","163","1"
"1020","Sommette-Eaucourt",,"sommette-eaucourt",,"FR","02480","19","24","49.74088","3.11721","142","1"
"1021","Ollezy",,"ollezy",,"FR","02480","19","24","49.73391","3.14543","136","1"
"1022","Pithon",,"pithon",,"FR","02480","19","24","49.75155","3.10008","86","1"
"1023","Bray-Saint-Christophe",,"bray-saint-christophe",,"FR","02480","19","24","49.77093","3.14419","79","1"
"1024","Vermand",,"vermand",,"FR","02490","19","24","49.87666","3.15049","1063","1"
"1025","Attilly",,"attilly",,"FR","02490","19","24","49.85594","3.16738","413","1"
"1026","Pontruet",,"pontruet",,"FR","02490","19","24","49.90840","3.22784","355","1"
"1027","Pontru",,"pontru",,"FR","02490","19","24","49.90412","3.21233","308","1"
"1028","Jeancourt",,"jeancourt",,"FR","02490","19","24","49.92559","3.14658","241","1"
"1029","Maissemy",,"maissemy",,"FR","02490","19","24","49.89481","3.18733","241","1"
"1030","Le Verguier",,"le-verguier",,"FR","02490","19","24","49.92535","3.16824","236","1"
"1031","Caulaincourt",,"caulaincourt",,"FR","02490","19","24","49.86404","3.10431","115","1"
"1032","Vendelles",,"vendelles",,"FR","02490","19","24","49.91005","3.13594","112","1"
"1033","Trefcon",,"trefcon",,"FR","02490","19","24","49.85741","3.09592","87","1"
"1034","Hirson",,"hirson",,"FR","02500","19","24","49.92443","4.08146","9991","1"
"1035","Mondrepuis",,"mondrepuis",,"FR","02500","19","24","49.96190","4.05474","1026","1"
"1036","Buire",,"buire",,"FR","02500","19","24","49.90340","4.05644","905","1"
"1037","Eparcy",,"eparcy",,"FR","02500","19","24","49.87434","4.06175","791","1"
"1038","Aubenton",,"aubenton",,"FR","02500","19","24","49.83492","4.20093","714","1"
"1039","Neuve-Maison",,"neuve-maison",,"FR","02500","19","24","49.93045","4.03250","644","1"
"1040","Any-Martin-Rieux",,"any-martin-rieux",,"FR","02500","19","24","49.88115","4.22694","516","1"
"1041","Wimy",,"wimy",,"FR","02500","19","24","49.93447","3.99997","504","1"
"1042","Martigny",,"martigny",,"FR","02500","19","24","49.85955","4.13767","498","0"
"1043","Effry",,"effry",,"FR","02500","19","24","49.92593","3.98353","363","1"
"1044","Ohis",,"ohis",,"FR","02500","19","24","49.92994","4.00963","315","1"
"1045","Luzoir",,"luzoir",,"FR","02500","19","24","49.92555","3.96197","291","1"
"1046","Bucilly",,"bucilly",,"FR","02500","19","24","49.87727","4.09389","213","1"
"1047","La Hérie",,"la-herie",,"FR","02500","19","24","49.88242","4.04482","173","1"
"1048","Leuze",,"leuze",,"FR","02500","19","24","49.85129","4.16155","161","0"
"1049","Besmont",,"besmont",,"FR","02500","19","24","49.83675","4.12271","148","1"
"1050","Beaumé",,"beaume",,"FR","02500","19","24","49.83721","4.15021","104","1"
"1051","Logny-lès-Aubenton",,"logny-les-aubenton",,"FR","02500","19","24","49.82861","4.21162","76","1"
"1052","Etreux",,"etreux",,"FR","02510","19","24","49.99217","3.65463","1564","1"
"1053","Hannapes",,"hannapes",,"FR","02510","19","24","49.97320","3.62479","263","1"
"1054","Vénérolles",,"venerolles",,"FR","02510","19","24","49.98038","3.63883","237","1"
"1055","Iron",,"iron",,"FR","02510","19","24","49.95465","3.65915","229","1"
"1056","Flavy-le-Martel",,"flavy-le-martel",,"FR","02520","19","24","49.71293","3.19127","1603","1"
"1057","L'Epine-aux-Bois",,"l-epine-aux-bois",,"FR","02540","19","24","48.88503","3.44737","1000","1"
"1058","Viels-Maisons",,"viels-maisons",,"FR","02540","19","24","48.89590","3.39560","975","1"
"1059","Montfaucon",,"montfaucon",,"FR","02540","19","24","48.95697","3.42605","583","0"
"1060","Viffort",,"viffort",,"FR","02540","19","24","48.96085","3.45776","288","1"
"1061","Marchais-en-Brie",,"marchais-en-brie",,"FR","02540","19","24","48.88364","3.48682","271","1"
"1062","Fontenelle-en-Brie",,"fontenelle-en-brie",,"FR","02540","19","24","48.91874","3.47665","186","1"
"1063","Vendières",,"vendieres",,"FR","02540","19","24","48.87166","3.44629","137","1"
"1064","Rozoy-Bellevalle",,"rozoy-bellevalle",,"FR","02540","19","24","48.92837","3.45579","114","1"
"1065","La Celle-sous-Montmirail",,"la-celle-sous-montmirail",,"FR","02540","19","24","48.86549","3.46601","104","1"
"1066","Origny-en-Thiérache",,"origny-en-thierache",,"FR","02550","19","24","49.89641","4.02177","1536","1"
"1067","Chézy-sur-Marne",,"chezy-sur-marne",,"FR","02570","19","24","48.98960","3.36611","1372","1"
"1068","Essises",,"essises",,"FR","02570","19","24","48.96153","3.42044","434","1"
"1069","La Chapelle-sur-Chézy",,"la-chapelle-sur-chezy",,"FR","02570","19","24","48.94645","3.37771","275","1"
"1070","Sorbais",,"sorbais",,"FR","02580","19","24","49.90787","3.89504","283","1"
"1071","Autreppes",,"autreppes",,"FR","02580","19","24","49.90460","3.85506","178","1"
"1072","Etréaupont",,"etreaupont",,"FR","02580","19","24","49.90285","3.91424","56","1"
"1073","Douchy",,"douchy",,"FR","02590","19","24","49.79625","3.13530","1025","0"
"1074","Savy",,"savy",,"FR","02590","19","24","49.83031","3.19386","664","1"
"1075","Germaine",,"germaine",,"FR","02590","19","24","49.81183","3.11504","548","0"
"1076","Villers-Saint-Christophe",,"villers-saint-christophe",,"FR","02590","19","24","49.77959","3.09411","463","1"
"1077","Beauvois-en-Vermandois",,"beauvois-en-vermandois",,"FR","02590","19","24","49.83703","3.10367","291","1"
"1078","Roupy",,"roupy",,"FR","02590","19","24","49.81309","3.18275","264","1"
"1079","Etreillers",,"etreillers",,"FR","02590","19","24","49.82870","3.15942","259","1"
"1080","Aubigny-aux-Kaisnes",,"aubigny-aux-kaisnes",,"FR","02590","19","24","49.77395","3.11595","252","1"
"1081","Fluquières",,"fluquieres",,"FR","02590","19","24","49.80362","3.15315","201","1"
"1082","Foreste",,"foreste",,"FR","02590","19","24","49.80814","3.10083","179","1"
"1083","Vaux-en-Vermandois",,"vaux-en-vermandois",,"FR","02590","19","24","49.82277","3.13951","142","1"
"1084","Lanchy",,"lanchy",,"FR","02590","19","24","49.82673","3.07655","59","1"
"1085","Villers-Cotterêts",,"villers-cotterets",,"FR","02600","19","24","49.25436","3.09070","10490","1"
"1086","Soucy",,"soucy",,"FR","02600","19","24","49.31331","3.12637","1379","0"
"1087","Cutry",,"cutry",,"FR","02600","19","24","49.34679","3.18094","948","0"
"1088","Mortefontaine",,"mortefontaine",,"FR","02600","19","24","49.33188","3.07521","868","0"
"1089","Haramont",,"haramont",,"FR","02600","19","24","49.27840","3.06215","606","1"
"1090","Coeuvres-et-Valsery",,"coeuvres-et-valsery",,"FR","02600","19","24","49.32151","3.15837","486","1"
"1091","Dampleux",,"dampleux",,"FR","02600","19","24","49.24456","3.15270","430","1"
"1092","Vivières",,"vivieres",,"FR","02600","19","24","49.29987","3.10325","406","1"
"1093","Retheuil",,"retheuil",,"FR","02600","19","24","49.32213","3.01013","374","1"
"1094","Saint-Pierre-Aigle",,"saint-pierre-aigle",,"FR","02600","19","24","49.32123","3.18361","373","1"
"1095","Coyolles",,"coyolles",,"FR","02600","19","24","49.23461","3.04185","367","1"
"1096","Corcy",,"corcy",,"FR","02600","19","24","49.25381","3.21108","314","1"
"1097","Dommiers",,"dommiers",,"FR","02600","19","24","49.32748","3.20843","309","1"
"1098","Longpont",,"longpont",,"FR","02600","19","24","49.27321","3.21977","293","1"
"1099","Taillefontaine",,"taillefontaine",,"FR","02600","19","24","49.31157","3.04229","280","1"
